~Version Information Section
VERS.          2.0                                     : CWLS LOG ASCII Standard
WRAP.          NO                                      : One line per depth step
CREA.          11/11/14                                : LAS Creation Date
~Well Information Section
STRT.m         27.0000                                 : Start Depth
STOP.m         690.8544                                : Stop Depth
STEP.m         0.1524                                  : Step
NULL.          -999.2500                               : Null Value
COMP.          SVERIGES                                : Company
WELL.          GROTLINGBO-1                            : Well
FLD .          GROTLINGBO                              : Field
LOC .          GOTLAND                                 : Location
LOC1.                                                  : Location (UTM)
PROV.          SWEDEN                                  : Province
UWI .          Sc23427-2851                            : UWI Number
API .                                                  : API Number
SECT.                                                  : Section
TOWN.                                                  : Township
RNGE.                                                  : Range
PDAT.          GL                                      : Perm Datum
EPD .m         0                                       : Elevation
LMF .          GL                                      : Log Measured From
DMF .          GL                                      : Drill Measured From
APD .                                                  : Above Perm Datum
EKB .                                                  : Elev-Kelly Bushing
EDF .                                                  : Elev-Drill Floor
EGL .                                                  : Elev-Ground Level
LATI.                                                  : Latitude
LONG.                                                  : Longitude
SRVC.          SCHLUMBERGER                            : Service Company
DATE.          16-MAR-1974                             : Logging Date
PROJ.          GRIPEN                                  : Project
SET .          FDC                                     : Set
~Parameter Information Section
RUN .          1                                       : Run #
DATE.          16/03/1974                              : Date log was run
TDD .m         690.0                                   : Depth - Driller
TDL .m         690.6                                   : Depth - Logger
BLI .m         690.4                                   : Bottom Log Interval
TLI .m         27.3                                    : Top Log Interval
CBD .                                                  : Casing - Driller
CBL .m         27.3                                    : Casing - Logger
CSIZ.in        7                                       : Casing Size
BS1 .in        5 5/16                                  : Bit Size
BS2 .in        5 3/8                                   : Bit Size
BS3 .in        5 1/2                                   : Bit Size
BS4 .in        5 27/32                                 : Bit Size
DFT .          SHALE                                   : Type of Fluid In Hole
DFD .          1.22                                    : Drilling Fluid Density
DFV .                                                  : Drilling Fluid Viscosity
DFPH.                                                  : Drilling Fluid pH
DFL .                                                  : Drilling Fluid Loss
MSS .                                                  : Source of Sample
RMS .                                                  : Mud Resitivity
MST .                                                  : Rm Temperature
RMFS.                                                  : Mud Filtrate Resistivity
MFST.                                                  : Rmf Temperature
RMCS.                                                  : Mud Cake Resitivity
MCST.                                                  : Rmc Temperature
MFSS.                                                  : Source of Rmf
MCSS.                                                  : Source of Rmc
RMBH.                                                  : Rm at BHT
BHT .                                                  : Bottom Hole Temperature
MRT .degc      28                                      : Max Recorded Temperature
OS  .          IES,GRN,BHC                             : Other Services
R001.          Coming up strong dragging 137.0 > 70.0m : Remarks
~Curve Information Section
DEPTH.m                                                : Depth Curve
CAL.in                                                 : Caliper
DEN.g/cc                                               : Density
~ASCII Log Data Section
# ...
  663.4224         5.2977         2.5128     
  663.5748         5.2834         2.5244     
  663.7272         5.2774         2.5444     
  663.8796         5.2832         2.5554     
  664.0320         5.2889         2.5604     
  664.1844         5.2947         2.5800     
  664.3368         5.3004         2.5788     
  664.4892         5.3062         2.5681     
  664.6416         5.3119         2.5568     
  664.7940         5.3177         2.5699     
  664.9464         5.3235         2.5902     
  665.0988         5.3292         2.5942     
  665.2512         5.3350         2.5796     
  665.4036         5.3407         2.5626     
  665.5560         5.3480         2.5515     
  665.7084         5.3557         2.5486     
  665.8608         5.3634         2.5390     
  666.0132         5.3711         2.5264     
  666.1656         5.3788         2.5166     
  666.3180         5.3865         2.5428     
  666.4704         5.3942         2.5603     
  666.6228         5.4019         2.5556     
  666.7752         5.4091         2.5307     
  666.9276         5.4128         2.5071     
  667.0800         5.4166         2.5131     
  667.2324         5.4203         2.5093     
  667.3848         5.4185         2.4919     
  667.5372         5.4126         2.5039     
  667.6896         5.4067         2.5180     
  667.8420         5.4008         2.5321     
  667.9944         5.3949         2.5327     
  668.1468         5.3890         2.5526     
  668.2992         5.3831         2.5427     
  668.4516         5.3797         2.5654     
  668.6040         5.3771         2.5644     
  668.7564         5.3744         2.5661     
  668.9088         5.3717         2.5788     
  669.0612         5.3691         2.5882     
  669.2136         5.3778         2.5776     
  669.3660         5.3895         2.5586     
  669.5184         5.4012         2.5515     
  669.6708         5.4130         2.5656     
  669.8232         5.4247         2.5883     
  669.9756         5.4365         2.6222     
  670.1280         5.4482         2.6265     
  670.2804         5.4599         2.6145     
  670.4328         5.4717         2.5952     
  670.5852         5.4723         2.5874     
  670.7376         5.4679         2.5953     
  670.8900         5.4635         2.6082     
  671.0424         5.4592         2.6036     
  671.1948         5.4548         2.5955     
  671.3472         5.4504         2.5978     
  671.4996         5.4461         2.6042     
  671.6520         5.4417         2.6011     
  671.8044         5.4373         2.5885     
  671.9568         5.4382         2.5730     
  672.1092         5.4439         2.5568     
  672.2616         5.4496         2.5721     
  672.4140         5.4553         2.5899     
  672.5664         5.4610         2.6093     
  672.7188         5.4667         2.6280     
  672.8712         5.4723         2.6435     
  673.0236         5.4780         2.6399     
  673.1760         5.4837         2.5746     
  673.3284         5.4875         2.5744     
  673.4808         5.4786         2.5786     
  673.6332         5.4697         2.6196     
  673.7856         5.4608         2.5882     
  673.9380         5.4519         2.5465     
  674.0904         5.4430         2.5362     
  674.2428         5.4341         2.5303     
  674.3952         5.4253         2.5455     
  674.5476         5.4085         2.5590     
  674.7000         5.3869         2.5669     
  674.8524         5.3653         2.5876     
  675.0048         5.3624         2.6007     
  675.1572         5.3761         2.5908     
  675.3096         5.3898         2.5870     
  675.4620         5.4035         2.5949     
  675.6144         5.4171         2.5912     
  675.7668         5.4239         2.6006     
  675.9192         5.4269         2.6076     
  676.0716         5.4299         2.5810     
  676.2240         5.4329         2.5668     
  676.3764         5.4411         2.5825     
  676.5288         5.4675         2.5704     
  676.6812         5.4939         2.5437     
  676.8336         5.5204         2.5084     
  676.9860         5.5468         2.4803     
  677.1384         5.5905         2.4632     
  677.2908         5.6424         2.4895     
  677.4432         5.6943         2.5242     
  677.5956         5.7462         2.5341     
  677.7480         5.7982         2.5224     
  677.9004         5.8501         2.4809     
  678.0528         5.8982         2.4509     
  678.2052         5.9347         2.4451     
  678.3576         5.9712         2.4654     
  678.5100         6.0077         2.4712     
  678.6624         6.0322         2.4651     
  678.8148         6.0482         2.4588     
  678.9672         6.0643         2.4664     
  679.1196         6.0714         2.4768     
  679.2720         6.0536         2.4816     
  679.4244         6.0358         2.4705     
  679.5768         6.0181         2.4551     
  679.7292         6.0003         2.4518     
  679.8816         5.9825         2.4572     
  680.0340         5.9647         2.4813     
  680.1864         5.9359         2.4983     
  680.3388         5.8965         2.5044     
  680.4912         5.8571         2.5064     
  680.6436         5.8177         2.5108     
  680.7960         5.7799         2.5054     
  680.9484         5.7556         2.4879     
  681.1008         5.7314         2.5253     
  681.2532         5.7071         2.5274     
  681.4056         5.6828         2.5132     
  681.5580         5.6586         2.4965     
  681.7104         5.6343         2.4878     
  681.8628         5.6095         2.4932     
  682.0152         5.5839         2.5016     
  682.1676         5.5584         2.5130     
  682.3200         5.5329         2.5347     
  682.4724         5.5082         2.5581     
  682.6248         5.4855         2.5641     
  682.7772         5.4727         2.5546     
  682.9296         5.4681         2.5299     
  683.0820         5.4634         2.5146     
  683.2344         5.4587         2.5330     
  683.3868         5.4541         2.5338     
  683.5392         5.4494         2.5467     
  683.6916         5.4382         2.5635     
  683.8440         5.4257         2.5715     
  683.9964         5.4131         2.5414     
  684.1488         5.4006         2.5547     
  684.3012         5.3880         2.5680     
  684.4536         5.3755         2.5639     
  684.6060         5.3582         2.5610     
  684.7584         5.3349         2.5625     
  684.9108         5.3115         2.5686     
  685.0632         5.3035         2.6092     
  685.2156         5.3064         2.6225     
  685.3680         5.3094         2.6100     
  685.5204         5.3123         2.5882     
  685.6728         5.3153         2.5664     
  685.8252         5.3183         2.5527     
  685.9776         5.3212         2.5583     
  686.1300         5.3242         2.5354     
  686.2824         5.3272         2.5205     
  686.4348         5.3229         2.5053     
  686.5872         5.3133         2.5152     
  686.7396         5.3037         2.5180     
  686.8920         5.3168         2.5165     
  687.0444         5.3357         2.5292     
  687.1968         5.3547         2.5410     
  687.3492         5.3736         2.5441     
  687.5016         5.3695         2.5282     
  687.6540         5.3476         2.5171     
  687.8064         5.3258         2.5236     
  687.9588         5.3040         2.5434     
  688.1112         5.3017         2.5307     
  688.2636         5.3152         2.5248     
  688.4160         5.3392         2.5325     
  688.5684         5.3407         2.5516     
  688.7208         5.2978         2.5631     
  688.8732         5.2549         2.5632     
  689.0256         5.2196         2.5575     
  689.1780         5.2107         2.5594     
  689.3304         5.2019         2.5367     
  689.4828         5.1930         2.5509     
  689.6352         5.1841         2.5795     
  689.7876         5.1752         2.5938     
