~Version Information Section
VERS.          2.0                                     : CWLS LOG ASCII Standard
WRAP.          NO                                      : One line per depth step
CREA.          11/11/14                                : LAS Creation Date
~Well Information Section
STRT.m         27.0000                                 : Start Depth
STOP.m         690.8544                                : Stop Depth
STEP.m         0.1524                                  : Step
NULL.          -999.2500                               : Null Value
COMP.          SVERIGES                                : Company
WELL.          GROTLINGBO-1                            : Well
FLD .          GROTLINGBO                              : Field
LOC .          GOTLAND                                 : Location
LOC1.                                                  : Location (UTM)
PROV.          SWEDEN                                  : Province
UWI .          Sc23427-2851                            : UWI Number
API .                                                  : API Number
SECT.                                                  : Section
TOWN.                                                  : Township
RNGE.                                                  : Range
PDAT.          GL                                      : Perm Datum
EPD .m         0                                       : Elevation
LMF .          GL                                      : Log Measured From
DMF .          GL                                      : Drill Measured From
APD .                                                  : Above Perm Datum
EKB .                                                  : Elev-Kelly Bushing
EDF .                                                  : Elev-Drill Floor
EGL .                                                  : Elev-Ground Level
LATI.                                                  : Latitude
LONG.                                                  : Longitude
SRVC.          SCHLUMBERGER                            : Service Company
DATE.          16-MAR-1974                             : Logging Date
PROJ.          GRIPEN                                  : Project
SET .          FDC                                     : Set
~Parameter Information Section
RUN .          1                                       : Run #
DATE.          16/03/1974                              : Date log was run
TDD .m         690.0                                   : Depth - Driller
TDL .m         690.6                                   : Depth - Logger
BLI .m         690.4                                   : Bottom Log Interval
TLI .m         27.3                                    : Top Log Interval
CBD .                                                  : Casing - Driller
CBL .m         27.3                                    : Casing - Logger
CSIZ.in        7                                       : Casing Size
BS1 .in        5 5/16                                  : Bit Size
BS2 .in        5 3/8                                   : Bit Size
BS3 .in        5 1/2                                   : Bit Size
BS4 .in        5 27/32                                 : Bit Size
DFT .          SHALE                                   : Type of Fluid In Hole
DFD .          1.22                                    : Drilling Fluid Density
DFV .                                                  : Drilling Fluid Viscosity
DFPH.                                                  : Drilling Fluid pH
DFL .                                                  : Drilling Fluid Loss
MSS .                                                  : Source of Sample
RMS .                                                  : Mud Resitivity
MST .                                                  : Rm Temperature
RMFS.                                                  : Mud Filtrate Resistivity
MFST.                                                  : Rmf Temperature
RMCS.                                                  : Mud Cake Resitivity
MCST.                                                  : Rmc Temperature
MFSS.                                                  : Source of Rmf
MCSS.                                                  : Source of Rmc
RMBH.                                                  : Rm at BHT
BHT .                                                  : Bottom Hole Temperature
MRT .degc      28                                      : Max Recorded Temperature
OS  .          IES,GRN,BHC                             : Other Services
R001.          Coming up strong dragging 137.0 > 70.0m : Remarks
~Curve Information Section
DEPTH.m                                                : Depth Curve
CAL.in                                                 : Caliper
DEN.g/cc                                               : Density
~ASCII Log Data Section
# ...
  583.8696         4.6001         2.4304     
  584.0220         4.5989         2.4353     
  584.1744         4.5976         2.4331     
  584.3268         4.5964         2.4465     
  584.4792         4.5951         2.4739     
  584.6316         4.5938         2.4652     
  584.7840         4.5926         2.4680     
  584.9364         4.5913         2.4692     
  585.0888         4.5900         2.4756     
  585.2412         4.5888         2.4727     
  585.3936         4.5875         2.4667     
  585.5460         4.5863         2.4595     
  585.6984         4.5850         2.4495     
  585.8508         4.5837         2.4451     
  586.0032         4.5825         2.4562     
  586.1556         4.5812         2.4752     
  586.3080         4.5890         2.4445     
  586.4604         4.6014         2.4638     
  586.6128         4.6139         2.4819     
  586.7652         4.6208         2.4819     
  586.9176         4.6208         2.4696     
  587.0700         4.6262         2.4266     
  587.2224         4.6729         2.4201     
  587.3748         4.7196         2.4285     
  587.5272         4.7664         2.4450     
  587.6796         4.8131         2.4575     
  587.8320         4.8598         2.4647     
  587.9844         4.8630         2.4590     
  588.1368         4.8462         2.4370     
  588.2892         4.8294         2.4300     
  588.4416         4.8126         2.4344     
  588.5940         4.7958         2.4515     
  588.7464         4.7974         2.4907     
  588.8988         4.8012         2.5299     
  589.0512         4.8050         2.5514     
  589.2036         4.8182         2.5623     
  589.3560         4.8584         2.5551     
  589.5084         4.9850         2.5517     
  589.6608         5.1697         2.5103     
  589.8132         5.2284         2.4597     
  589.9656         5.1548         2.4540     
  590.1180         5.0812         2.4559     
  590.2704         5.0881         2.4685     
  590.4228         5.1562         2.4767     
  590.5752         5.2269         2.4852     
  590.7276         5.2975         2.4585     
  590.8800         5.4276         2.4658     
  591.0324         5.6041         2.4646     
  591.1848         5.7380         2.4544     
  591.3372         5.7988         2.4362     
  591.4896         5.8262         2.4137     
  591.6420         5.8324         2.4144     
  591.7944         5.8385         2.4211     
  591.9468         5.8447         2.4080     
  592.0992         5.8508         2.4026     
  592.2516         5.8570         2.4142     
  592.4040         5.8632         2.4401     
  592.5564         5.8693         2.4601     
  592.7088         5.8755         2.4784     
  592.8612         5.7993         2.5169     
  593.0136         5.7182         2.5394     
  593.1660         5.6607         2.4961     
  593.3184         5.6558         2.4432     
  593.4708         5.6510         2.4102     
  593.6232         5.6359         2.4117     
  593.7756         5.6131         2.4284     
  593.9280         5.5903         2.4429     
  594.0804         5.5675         2.4399     
  594.2328         5.5447         2.4428     
  594.3852         5.5219         2.4572     
  594.5376         5.4990         2.4578     
  594.6900         5.5217         2.4634     
  594.8424         5.5824         2.4658     
  594.9948         5.6431         2.4511     
  595.1472         5.7038         2.4267     
  595.2996         5.7290         2.4117     
  595.4520         5.7290         2.4252     
  595.6044         5.7280         2.4378     
  595.7568         5.7241         2.4378     
  595.9092         5.7203         2.4353     
  596.0616         5.7165         2.4269     
  596.2140         5.7127         2.4096     
  596.3664         5.7089         2.3950     
  596.5188         5.7051         2.4268     
  596.6712         5.7012         2.4379     
  596.8236         5.6974         2.4531     
  596.9760         5.6936         2.4665     
  597.1284         5.6898         2.4485     
  597.2808         5.6847         2.4418     
  597.4332         5.6792         2.4556     
  597.5856         5.6737         2.4743     
  597.7380         5.6682         2.4835     
  597.8904         5.6627         2.4935     
  598.0428         5.6572         2.4937     
  598.1952         5.6517         2.4788     
  598.3476         5.6462         2.4631     
  598.5000         5.6407         2.4565     
  598.6524         5.6352         2.4667     
  598.8048         5.6297         2.4650     
  598.9572         5.6243         2.4407     
  599.1096         5.6239         2.4110     
  599.2620         5.6267         2.3992     
  599.4144         5.6296         2.4084     
  599.5668         5.6324         2.4317     
  599.7192         5.6352         2.4528     
  599.8716         5.6380         2.4513     
  600.0240         5.6409         2.4588     
  600.1764         5.6437         2.4653     
  600.3288         5.6465         2.4521     
  600.4812         5.6493         2.4511     
  600.6336         5.6521         2.4558     
  600.7860         5.6550         2.4481     
  600.9384         5.6578         2.4382     
  601.0908         5.6606         2.4380     
  601.2432         5.6634         2.4272     
  601.3956         5.6663         2.4191     
  601.5480         5.6691         2.4416     
  601.7004         5.6719         2.4663     
  601.8528         5.6747         2.4672     
  602.0052         5.6756         2.4555     
  602.1576         5.6756         2.4523     
  602.3100         5.6756         2.4524     
  602.4624         5.6756         2.4445     
  602.6148         5.6756         2.4600     
  602.7672         5.6884         2.4830     
  602.9196         5.7117         2.5105     
  603.0720         5.7351         2.5334     
  603.2244         5.7956         2.5530     
  603.3768         5.8725         2.5588     
  603.5292         5.9200         2.5517     
  603.6816         5.9486         2.5403     
  603.8340         5.9559         2.5392     
  603.9864         5.9559         2.5422     
  604.1388         5.9559         2.5353     
  604.2912         5.9559         2.5298     
  604.4436         5.9559         2.5279     
  604.5960         5.9690         2.5319     
  604.7484         5.9941         2.5369     
  604.9008         6.0656         2.5284     
  605.0532         6.1134         2.5174     
  605.2056         6.0982         2.5286     
  605.3580         6.1162         2.5462     
  605.5104         6.0694         2.5581     
  605.6628         6.0217         2.5568     
  605.8152         5.9741         2.5514     
  605.9676         5.9903         2.5641     
  606.1200         6.0136         2.5367     
  606.2724         6.0360         2.4919     
  606.4248         6.0196         2.5005     
  606.5772         5.9143         2.5063     
  606.7296         5.8090         2.4946     
  606.8820         5.7037         2.5501     
  607.0344         5.5955         2.5644     
  607.1868         5.5955         2.5561     
  607.3392         5.5955         2.5508     
  607.4916         5.5955         2.5501     
  607.6440         5.5955         2.5503     
  607.7964         5.6042         2.5539     
  607.9488         5.6152         2.5506     
  608.1012         5.6262         2.5298     
  608.2536         5.6372         2.5120     
  608.4060         5.6483         2.5066     
  608.5584         5.6593         2.5421     
  608.7108         5.6703         2.5600     
  608.8632         5.6566         2.5616     
  609.0156         5.5988         2.5602     
  609.1680         5.5116         2.5557     
  609.3204         5.4244         2.5387     
  609.4728         5.3373         2.5385     
  609.6252         5.3387         2.5397     
  609.7776         5.3802         2.5334     
  609.9300         5.4217         2.5142     
  610.0824         5.4619         2.5071     
  610.2348         5.2413         2.5205     
