~Version Information Section
VERS.          2.0                                     : CWLS LOG ASCII Standard
WRAP.          NO                                      : One line per depth step
CREA.          11/11/14                                : LAS Creation Date
~Well Information Section
STRT.m         27.0000                                 : Start Depth
STOP.m         690.8544                                : Stop Depth
STEP.m         0.1524                                  : Step
NULL.          -999.2500                               : Null Value
COMP.          SVERIGES                                : Company
WELL.          GROTLINGBO-1                            : Well
FLD .          GROTLINGBO                              : Field
LOC .          GOTLAND                                 : Location
LOC1.                                                  : Location (UTM)
PROV.          SWEDEN                                  : Province
UWI .          Sc23427-2851                            : UWI Number
API .                                                  : API Number
SECT.                                                  : Section
TOWN.                                                  : Township
RNGE.                                                  : Range
PDAT.          GL                                      : Perm Datum
EPD .m         0                                       : Elevation
LMF .          GL                                      : Log Measured From
DMF .          GL                                      : Drill Measured From
APD .                                                  : Above Perm Datum
EKB .                                                  : Elev-Kelly Bushing
EDF .                                                  : Elev-Drill Floor
EGL .                                                  : Elev-Ground Level
LATI.                                                  : Latitude
LONG.                                                  : Longitude
SRVC.          SCHLUMBERGER                            : Service Company
DATE.          16-MAR-1974                             : Logging Date
PROJ.          GRIPEN                                  : Project
SET .          FDC                                     : Set
~Parameter Information Section
RUN .          1                                       : Run #
DATE.          16/03/1974                              : Date log was run
TDD .m         690.0                                   : Depth - Driller
TDL .m         690.6                                   : Depth - Logger
BLI .m         690.4                                   : Bottom Log Interval
TLI .m         27.3                                    : Top Log Interval
CBD .                                                  : Casing - Driller
CBL .m         27.3                                    : Casing - Logger
CSIZ.in        7                                       : Casing Size
BS1 .in        5 5/16                                  : Bit Size
BS2 .in        5 3/8                                   : Bit Size
BS3 .in        5 1/2                                   : Bit Size
BS4 .in        5 27/32                                 : Bit Size
DFT .          SHALE                                   : Type of Fluid In Hole
DFD .          1.22                                    : Drilling Fluid Density
DFV .                                                  : Drilling Fluid Viscosity
DFPH.                                                  : Drilling Fluid pH
DFL .                                                  : Drilling Fluid Loss
MSS .                                                  : Source of Sample
RMS .                                                  : Mud Resitivity
MST .                                                  : Rm Temperature
RMFS.                                                  : Mud Filtrate Resistivity
MFST.                                                  : Rmf Temperature
RMCS.                                                  : Mud Cake Resitivity
MCST.                                                  : Rmc Temperature
MFSS.                                                  : Source of Rmf
MCSS.                                                  : Source of Rmc
RMBH.                                                  : Rm at BHT
BHT .                                                  : Bottom Hole Temperature
MRT .degc      28                                      : Max Recorded Temperature
OS  .          IES,GRN,BHC                             : Other Services
R001.          Coming up strong dragging 137.0 > 70.0m : Remarks
~Curve Information Section
DEPTH.m                                                : Depth Curve
CAL.in                                                 : Caliper
DEN.g/cc                                               : Density
~ASCII Log Data Section
# ...
  239.1408         5.7445         2.5024     
  239.2932         5.7490         2.5056     
  239.4456         5.7535         2.5175     
  239.5980         5.7580         2.5329     
  239.7504         5.7624         2.5394     
  239.9028         5.7669         2.5110     
  240.0552         5.7673         2.5118     
  240.2076         5.7640         2.5208     
  240.3600         5.7606         2.5305     
  240.5124         5.7573         2.5448     
  240.6648         5.7540         2.5594     
  240.8172         5.7507         2.5308     
  240.9696         5.7474         2.5120     
  241.1220         5.7441         2.5404     
  241.2744         5.7441         2.5523     
  241.4268         5.7478         2.5565     
  241.5792         5.7516         2.5607     
  241.7316         5.7554         2.5633     
  241.8840         5.7591         2.5624     
  242.0364         5.7629         2.5575     
  242.1888         5.7666         2.5478     
  242.3412         5.7704         2.5341     
  242.4936         5.7741         2.5207     
  242.6460         5.7779         2.5186     
  242.7984         5.7816         2.5294     
  242.9508         5.7816         2.5366     
  243.1032         5.7807         2.5414     
  243.2556         5.7798         2.5133     
  243.4080         5.7788         2.5049     
  243.5604         5.7779         2.5059     
  243.7128         5.7770         2.5255     
  243.8652         5.7760         2.5327     
  244.0176         5.7751         2.5205     
  244.1700         5.7742         2.5137     
  244.3224         5.7732         2.5256     
  244.4748         5.7723         2.5381     
  244.6272         5.7714         2.5436     
  244.7796         5.7704         2.5418     
  244.9320         5.7695         2.5329     
  245.0844         5.7662         2.5254     
  245.2368         5.7606         2.5300     
  245.3892         5.7550         2.5227     
  245.5416         5.7493         2.5252     
  245.6940         5.7437         2.5267     
  245.8464         5.7381         2.5087     
  245.9988         5.7325         2.4966     
  246.1512         5.7390         2.4745     
  246.3036         5.7653         2.4800     
  246.4560         5.7916         2.4957     
  246.6084         5.8179         2.5193     
  246.7608         5.8442         2.5347     
  246.9132         5.8705         2.5183     
  247.0656         5.8969         2.5182     
  247.2180         5.9232         2.5253     
  247.3704         5.9426         2.5219     
  247.5228         5.9426         2.5173     
  247.6752         5.9426         2.5285     
  247.8276         5.9426         2.5284     
  247.9800         5.9426         2.5165     
  248.1324         5.9426         2.4944     
  248.2848         5.9426         2.4912     
  248.4372         5.9426         2.4973     
  248.5896         5.9603         2.5210     
  248.7420         5.9775         2.5376     
  248.8944         5.9946         2.5380     
  249.0468         6.0118         2.5247     
  249.1992         6.0289         2.5124     
  249.3516         6.0461         2.4908     
  249.5040         6.0632         2.4331     
  249.6564         6.0861         2.3926     
  249.8088         6.1263         2.3014     
  249.9612         6.1666         2.2413     
  250.1136         6.2069         2.1390     
  250.2660         6.2184         2.2364     
  250.4184         6.1518         2.3951     
  250.5708         6.0852         2.5441     
  250.7232         6.0776         2.5622     
  250.8756         6.0794         2.5557     
  251.0280         6.0812         2.5728     
  251.1804         6.0829         2.6006     
  251.3328         6.0847         2.6142     
  251.4852         6.0865         2.6169     
  251.6376         6.0882         2.5969     
  251.7900         6.0866         2.5942     
  251.9424         6.0775         2.5915     
  252.0948         6.0685         2.5681     
  252.2472         6.0781         2.5500     
  252.3996         6.1203         2.5360     
  252.5520         6.1625         2.5442     
  252.7044         6.2046         2.5608     
  252.8568         6.2468         2.5289     
  253.0092         6.2890         2.5321     
  253.1616         6.3208         2.5224     
  253.3140         6.3335         2.4910     
  253.4664         6.3461         2.5002     
  253.6188         6.3587         2.4988     
  253.7712         6.3714         2.4824     
  253.9236         6.3840         2.4792     
  254.0760         6.3966         2.5013     
  254.2284         6.4092         2.5138     
  254.3808         6.4219         2.5050     
  254.5332         6.4345         2.4934     
  254.6856         6.4490         2.4872     
  254.8380         6.4639         2.4995     
  254.9904         6.4788         2.5069     
  255.1428         6.4936         2.5038     
  255.2952         6.5085         2.5094     
  255.4476         6.5126         2.5169     
  255.6000         6.5037         2.5348     
  255.7524         6.4947         2.5477     
  255.9048         6.4858         2.5270     
  256.0572         6.4768         2.5223     
  256.2096         6.4679         2.5303     
  256.3620         6.4589         2.5434     
  256.5144         6.4500         2.5272     
  256.6668         6.4410         2.5151     
  256.8192         6.4390         2.5246     
  256.9716         6.4439         2.5354     
  257.1240         6.4487         2.5249     
  257.2764         6.4511         2.5131     
  257.4288         6.4527         2.5009     
  257.5812         6.4544         2.4919     
  257.7336         6.4560         2.5058     
  257.8860         6.4576         2.5223     
  258.0384         6.4592         2.5142     
  258.1908         6.4608         2.5065     
  258.3432         6.4624         2.5168     
  258.4956         6.4638         2.5286     
  258.6480         6.4649         2.5334     
  258.8004         6.4659         2.5113     
  258.9528         6.4670         2.5024     
  259.1052         6.4681         2.5026     
  259.2576         6.4692         2.5126     
  259.4100         6.4703         2.5220     
  259.5624         6.4713         2.5063     
  259.7148         6.4724         2.4999     
  259.8672         6.4735         2.5034     
  260.0196         6.4746         2.5151     
  260.1720         6.4757         2.5317     
  260.3244         6.4743         2.5447     
  260.4768         6.4485         2.5412     
  260.6292         6.4227         2.5377     
  260.7816         6.3969         2.5266     
  260.9340         6.3711         2.5093     
  261.0864         6.3453         2.5059     
  261.2388         6.3530         2.5323     
  261.3912         6.3637         2.5456     
  261.5436         6.3745         2.5616     
  261.6960         6.3852         2.5801     
  261.8484         6.3960         2.5354     
  262.0008         6.4067         2.5401     
  262.1532         6.4175         2.5409     
  262.3056         6.4282         2.5239     
  262.4580         6.4472         2.5059     
  262.6104         6.4622         2.5006     
  262.7628         6.4607         2.5087     
  262.9152         6.4591         2.4996     
  263.0676         6.4575         2.4907     
  263.2200         6.4559         2.4942     
  263.3724         6.4544         2.4944     
  263.5248         6.4528         2.4873     
  263.6772         6.4512         2.4823     
  263.8296         6.4507         2.4863     
  263.9820         6.4545         2.4766     
  264.1344         6.4584         2.4571     
  264.2868         6.4622         2.4558     
  264.4392         6.4661         2.4835     
  264.5916         6.4699         2.4984     
  264.7440         6.4738         2.5204     
  264.8964         6.4812         2.5452     
  265.0488         6.4988         2.5573     
  265.2012         6.5165         2.5636     
  265.3536         6.5341         2.5663     
  265.5060         6.5518         2.5665     
