~Version Information Section
VERS.          2.0                                     : CWLS LOG ASCII Standard
WRAP.          NO                                      : One line per depth step
CREA.          11/11/14                                : LAS Creation Date
~Well Information Section
STRT.m         27.0000                                 : Start Depth
STOP.m         690.8544                                : Stop Depth
STEP.m         0.1524                                  : Step
NULL.          -999.2500                               : Null Value
COMP.          SVERIGES                                : Company
WELL.          GROTLINGBO-1                            : Well
FLD .          GROTLINGBO                              : Field
LOC .          GOTLAND                                 : Location
LOC1.                                                  : Location (UTM)
PROV.          SWEDEN                                  : Province
UWI .          Sc23427-2851                            : UWI Number
API .                                                  : API Number
SECT.                                                  : Section
TOWN.                                                  : Township
RNGE.                                                  : Range
PDAT.          GL                                      : Perm Datum
EPD .m         0                                       : Elevation
LMF .          GL                                      : Log Measured From
DMF .          GL                                      : Drill Measured From
APD .                                                  : Above Perm Datum
EKB .                                                  : Elev-Kelly Bushing
EDF .                                                  : Elev-Drill Floor
EGL .                                                  : Elev-Ground Level
LATI.                                                  : Latitude
LONG.                                                  : Longitude
SRVC.          SCHLUMBERGER                            : Service Company
DATE.          16-MAR-1974                             : Logging Date
PROJ.          GRIPEN                                  : Project
SET .          FDC                                     : Set
~Parameter Information Section
RUN .          1                                       : Run #
DATE.          16/03/1974                              : Date log was run
TDD .m         690.0                                   : Depth - Driller
TDL .m         690.6                                   : Depth - Logger
BLI .m         690.4                                   : Bottom Log Interval
TLI .m         27.3                                    : Top Log Interval
CBD .                                                  : Casing - Driller
CBL .m         27.3                                    : Casing - Logger
CSIZ.in        7                                       : Casing Size
BS1 .in        5 5/16                                  : Bit Size
BS2 .in        5 3/8                                   : Bit Size
BS3 .in        5 1/2                                   : Bit Size
BS4 .in        5 27/32                                 : Bit Size
DFT .          SHALE                                   : Type of Fluid In Hole
DFD .          1.22                                    : Drilling Fluid Density
DFV .                                                  : Drilling Fluid Viscosity
DFPH.                                                  : Drilling Fluid pH
DFL .                                                  : Drilling Fluid Loss
MSS .                                                  : Source of Sample
RMS .                                                  : Mud Resitivity
MST .                                                  : Rm Temperature
RMFS.                                                  : Mud Filtrate Resistivity
MFST.                                                  : Rmf Temperature
RMCS.                                                  : Mud Cake Resitivity
MCST.                                                  : Rmc Temperature
MFSS.                                                  : Source of Rmf
MCSS.                                                  : Source of Rmc
RMBH.                                                  : Rm at BHT
BHT .                                                  : Bottom Hole Temperature
MRT .degc      28                                      : Max Recorded Temperature
OS  .          IES,GRN,BHC                             : Other Services
R001.          Coming up strong dragging 137.0 > 70.0m : Remarks
~Curve Information Section
DEPTH.m                                                : Depth Curve
CAL.in                                                 : Caliper
DEN.g/cc                                               : Density
~ASCII Log Data Section
# ...
  371.7288         6.7483         2.5054     
  371.8812         6.7422         2.5122     
  372.0336         6.7362         2.5207     
  372.1860         6.7303         2.5438     
  372.3384         6.7270         2.5630     
  372.4908         6.7238         2.5571     
  372.6432         6.7206         2.5491     
  372.7956         6.7174         2.5313     
  372.9480         6.7244         2.5307     
  373.1004         6.7331         2.5319     
  373.2528         6.7418         2.5247     
  373.4052         6.7506         2.5301     
  373.5576         6.7593         2.5218     
  373.7100         6.7681         2.5095     
  373.8624         6.7768         2.4966     
  374.0148         6.7855         2.5011     
  374.1672         6.7943         2.5059     
  374.3196         6.8030         2.5177     
  374.4720         6.8118         2.5298     
  374.6244         6.8205         2.5452     
  374.7768         6.8297         2.5529     
  374.9292         6.8392         2.5554     
  375.0816         6.8487         2.5493     
  375.2340         6.8485         2.5348     
  375.3864         6.8462         2.5276     
  375.5388         6.8438         2.5376     
  375.6912         6.8414         2.5467     
  375.8436         6.8391         2.5310     
  375.9960         6.8378         2.5346     
  376.1484         6.8412         2.5200     
  376.3008         6.8447         2.5121     
  376.4532         6.8481         2.5176     
  376.6056         6.8451         2.5237     
  376.7580         6.8284         2.5184     
  376.9104         6.8116         2.5066     
  377.0628         6.7948         2.4965     
  377.2152         6.7681         2.4887     
  377.3676         6.7001         2.4962     
  377.5200         6.6629         2.5137     
  377.6724         6.6615         2.5317     
  377.8248         6.6601         2.5408     
  377.9772         6.6587         2.5234     
  378.1296         6.6573         2.4981     
  378.2820         6.6559         2.4991     
  378.4344         6.6545         2.5139     
  378.5868         6.6531         2.5315     
  378.7392         6.6517         2.5491     
  378.8916         6.6502         2.5509     
  379.0440         6.6484         2.5452     
  379.1964         6.6465         2.5434     
  379.3488         6.6446         2.5458     
  379.5012         6.6427         2.5534     
  379.6536         6.6408         2.5633     
  379.8060         6.6389         2.5533     
  379.9584         6.6371         2.5385     
  380.1108         6.6320         2.5326     
  380.2632         6.6265         2.5321     
  380.4156         6.6211         2.5316     
  380.5680         6.6156         2.5267     
  380.7204         6.6102         2.5084     
  380.8728         6.6047         2.4931     
  381.0252         6.5993         2.4826     
  381.1776         6.5926         2.4958     
  381.3300         6.5847         2.5113     
  381.4824         6.5769         2.5083     
  381.6348         6.5713         2.5046     
  381.7872         6.5800         2.5346     
  381.9396         6.5887         2.5337     
  382.0920         6.5980         2.5406     
  382.2444         6.6159         2.5514     
  382.3968         6.6338         2.5458     
  382.5492         6.6517         2.5302     
  382.7016         6.6488         2.5073     
  382.8540         6.6049         2.5110     
  383.0064         6.5609         2.5225     
  383.1588         6.5170         2.5441     
  383.3112         6.4942         2.5447     
  383.4636         6.5050         2.5434     
  383.6160         6.5158         2.5421     
  383.7684         6.5266         2.5308     
  383.9208         6.5374         2.5147     
  384.0732         6.5470         2.5106     
  384.2256         6.5551         2.5226     
  384.3780         6.5299         2.5461     
  384.5304         6.4965         2.5698     
  384.6828         6.4630         2.5688     
  384.8352         6.4295         2.5549     
  384.9876         6.4168         2.5281     
  385.1400         6.4336         2.5128     
  385.2924         6.4504         2.5098     
  385.4448         6.4672         2.5159     
  385.5972         6.4678         2.5150     
  385.7496         6.4476         2.5073     
  385.9020         6.4275         2.5112     
  386.0544         6.4074         2.5308     
  386.2068         6.3872         2.5466     
  386.3592         6.3440         2.5543     
  386.5116         6.2950         2.5718     
  386.6640         6.2460         2.6062     
  386.8164         6.1970         2.6336     
  386.9688         6.1885         2.6134     
  387.1212         6.1978         2.5966     
  387.2736         6.2071         2.5908     
  387.4260         6.2164         2.6069     
  387.5784         6.2257         2.6153     
  387.7308         6.2350         2.6226     
  387.8832         6.2351         2.6279     
  388.0356         6.2337         2.6190     
  388.1880         6.2323         2.5958     
  388.3404         6.2309         2.5765     
  388.4928         6.2296         2.5835     
  388.6452         6.2282         2.5962     
  388.7976         6.2268         2.6059     
  388.9500         6.2254         2.6129     
  389.1024         6.2240         2.5975     
  389.2548         6.2226         2.5868     
  389.4072         6.2212         2.5987     
  389.5596         6.2198         2.5951     
  389.7120         6.2184         2.5875     
  389.8644         6.2170         2.5868     
  390.0168         6.2156         2.5908     
  390.1692         6.2143         2.5972     
  390.3216         6.2129         2.6058     
  390.4740         6.2115         2.6131     
  390.6264         6.2101         2.6108     
  390.7788         6.2105         2.6002     
  390.9312         6.2117         2.6039     
  391.0836         6.2130         2.6171     
  391.2360         6.2143         2.6350     
  391.3884         6.2156         2.6292     
  391.5408         6.2169         2.6062     
  391.6932         6.2182         2.6152     
  391.8456         6.2194         2.6396     
  391.9980         6.2207         2.6552     
  392.1504         6.2220         2.6523     
  392.3028         6.2240         2.6223     
  392.4552         6.2284         2.6044     
  392.6076         6.2327         2.6079     
  392.7600         6.2371         2.6013     
  392.9124         6.2414         2.6001     
  393.0648         6.2457         2.6043     
  393.2172         6.2501         2.6074     
  393.3696         6.2544         2.6113     
  393.5220         6.2588         2.6206     
  393.6744         6.2631         2.6206     
  393.8268         6.2675         2.6082     
  393.9792         6.2718         2.6119     
  394.1316         6.2764         2.6137     
  394.2840         6.2741         2.6049     
  394.4364         6.2717         2.5946     
  394.5888         6.2693         2.5974     
  394.7412         6.2669         2.5959     
  394.8936         6.2646         2.5861     
  395.0460         6.2634         2.5709     
  395.1984         6.2645         2.5554     
  395.3508         6.2656         2.5739     
  395.5032         6.2667         2.5886     
  395.6556         6.2678         2.5823     
  395.8080         6.2689         2.5785     
  395.9604         6.2700         2.5793     
  396.1128         6.2710         2.5768     
  396.2652         6.2721         2.5831     
  396.4176         6.2732         2.5901     
  396.5700         6.2743         2.5895     
  396.7224         6.2754         2.6011     
  396.8748         6.2764         2.6166     
  397.0272         6.2764         2.6249     
  397.1796         6.2764         2.5641     
  397.3320         6.2764         2.5720     
  397.4844         6.2764         2.5834     
  397.6368         6.2764         2.5786     
  397.7892         6.2764         2.5708     
  397.9416         6.2550         2.5802     
  398.0940         6.2339         2.5932     
