~Version Information Section
VERS.          2.0                                     : CWLS LOG ASCII Standard
WRAP.          NO                                      : One line per depth step
CREA.          11/11/14                                : LAS Creation Date
~Well Information Section
STRT.m         27.0000                                 : Start Depth
STOP.m         690.8544                                : Stop Depth
STEP.m         0.1524                                  : Step
NULL.          -999.2500                               : Null Value
COMP.          SVERIGES                                : Company
WELL.          GROTLINGBO-1                            : Well
FLD .          GROTLINGBO                              : Field
LOC .          GOTLAND                                 : Location
LOC1.                                                  : Location (UTM)
PROV.          SWEDEN                                  : Province
UWI .          Sc23427-2851                            : UWI Number
API .                                                  : API Number
SECT.                                                  : Section
TOWN.                                                  : Township
RNGE.                                                  : Range
PDAT.          GL                                      : Perm Datum
EPD .m         0                                       : Elevation
LMF .          GL                                      : Log Measured From
DMF .          GL                                      : Drill Measured From
APD .                                                  : Above Perm Datum
EKB .                                                  : Elev-Kelly Bushing
EDF .                                                  : Elev-Drill Floor
EGL .                                                  : Elev-Ground Level
LATI.                                                  : Latitude
LONG.                                                  : Longitude
SRVC.          SCHLUMBERGER                            : Service Company
DATE.          16-MAR-1974                             : Logging Date
PROJ.          GRIPEN                                  : Project
SET .          FDC                                     : Set
~Parameter Information Section
RUN .          1                                       : Run #
DATE.          16/03/1974                              : Date log was run
TDD .m         690.0                                   : Depth - Driller
TDL .m         690.6                                   : Depth - Logger
BLI .m         690.4                                   : Bottom Log Interval
TLI .m         27.3                                    : Top Log Interval
CBD .                                                  : Casing - Driller
CBL .m         27.3                                    : Casing - Logger
CSIZ.in        7                                       : Casing Size
BS1 .in        5 5/16                                  : Bit Size
BS2 .in        5 3/8                                   : Bit Size
BS3 .in        5 1/2                                   : Bit Size
BS4 .in        5 27/32                                 : Bit Size
DFT .          SHALE                                   : Type of Fluid In Hole
DFD .          1.22                                    : Drilling Fluid Density
DFV .                                                  : Drilling Fluid Viscosity
DFPH.                                                  : Drilling Fluid pH
DFL .                                                  : Drilling Fluid Loss
MSS .                                                  : Source of Sample
RMS .                                                  : Mud Resitivity
MST .                                                  : Rm Temperature
RMFS.                                                  : Mud Filtrate Resistivity
MFST.                                                  : Rmf Temperature
RMCS.                                                  : Mud Cake Resitivity
MCST.                                                  : Rmc Temperature
MFSS.                                                  : Source of Rmf
MCSS.                                                  : Source of Rmc
RMBH.                                                  : Rm at BHT
BHT .                                                  : Bottom Hole Temperature
MRT .degc      28                                      : Max Recorded Temperature
OS  .          IES,GRN,BHC                             : Other Services
R001.          Coming up strong dragging 137.0 > 70.0m : Remarks
~Curve Information Section
DEPTH.m                                                : Depth Curve
CAL.in                                                 : Caliper
DEN.g/cc                                               : Density
~ASCII Log Data Section
# ...
  159.5880         6.7556         2.5554     
  159.7404         6.6690         2.5396     
  159.8928         6.6399         2.5269     
  160.0452         6.6268         2.5294     
  160.1976         6.6136         2.5310     
  160.3500         6.6005         2.5215     
  160.5024         6.5873         2.5162     
  160.6548         6.5742         2.5110     
  160.8072         6.5611         2.4908     
  160.9596         6.5479         2.4698     
  161.1120         6.5605         2.4745     
  161.2644         6.5867         2.4858     
  161.4168         6.6128         2.5166     
  161.5692         6.6043         2.5253     
  161.7216         6.5719         2.5119     
  161.8740         6.5395         2.5039     
  162.0264         6.5070         2.5124     
  162.1788         6.4746         2.5080     
  162.3312         6.4421         2.5056     
  162.4836         6.4099         2.5070     
  162.6360         6.3845         2.5100     
  162.7884         6.3593         2.5189     
  162.9408         6.3341         2.5073     
  163.0932         6.3519         2.5122     
  163.2456         6.3786         2.5360     
  163.3980         6.3860         2.5199     
  163.5504         6.3543         2.5048     
  163.7028         6.3225         2.5019     
  163.8552         6.2907         2.5146     
  164.0076         6.2640         2.5215     
  164.1600         6.2719         2.5146     
  164.3124         6.2797         2.5303     
  164.4648         6.2876         2.5411     
  164.6172         6.2576         2.5373     
  164.7696         6.2133         2.5280     
  164.9220         6.1689         2.5145     
  165.0744         6.1245         2.5100     
  165.2268         6.0867         2.5286     
  165.3792         6.0733         2.5721     
  165.5316         6.0600         2.5623     
  165.6840         6.0466         2.5536     
  165.8364         6.0333         2.5431     
  165.9888         6.0229         2.5198     
  166.1412         6.0236         2.5002     
  166.2936         6.0244         2.4926     
  166.4460         6.0251         2.5130     
  166.5984         6.0259         2.5197     
  166.7508         6.0266         2.5319     
  166.9032         6.0274         2.5114     
  167.0556         6.0281         2.5113     
  167.2080         6.0289         2.5124     
  167.3604         6.0296         2.5273     
  167.5128         6.0304         2.5417     
  167.6652         6.0311         2.5561     
  167.8176         6.0319         2.5309     
  167.9700         6.0326         2.5033     
  168.1224         6.0334         2.5033     
  168.2748         6.0341         2.5149     
  168.4272         6.0349         2.5310     
  168.5796         6.0356         2.5354     
  168.7320         6.0176         2.5120     
  168.8844         5.9567         2.4966     
  169.0368         5.8811         2.5059     
  169.1892         5.8055         2.5283     
  169.3416         5.7638         2.5385     
  169.4940         5.7552         2.5287     
  169.6464         5.7527         2.5038     
  169.7988         5.7502         2.4799     
  169.9512         5.7477         2.5023     
  170.1036         5.7452         2.5400     
  170.2560         5.7428         2.5295     
  170.4084         5.7403         2.5097     
  170.5608         5.7378         2.5064     
  170.7132         5.7353         2.5074     
  170.8656         5.7328         2.5038     
  171.0180         5.7303         2.5089     
  171.1704         5.7261         2.5293     
  171.3228         5.7201         2.5476     
  171.4752         5.7140         2.5695     
  171.6276         5.7079         2.5510     
  171.7800         5.7025         2.5224     
  171.9324         5.7061         2.5306     
  172.0848         5.7096         2.5352     
  172.2372         5.7132         2.5435     
  172.3896         5.7168         2.5257     
  172.5420         5.7203         2.5183     
  172.6944         5.7239         2.5054     
  172.8468         5.7275         2.4886     
  172.9992         5.7310         2.4735     
  173.1516         5.7346         2.4870     
  173.3040         5.7382         2.5014     
  173.4564         5.7417         2.5055     
  173.6088         5.7414         2.5035     
  173.7612         5.7402         2.5233     
  173.9136         5.7391         2.5110     
  174.0660         5.7380         2.5037     
  174.2184         5.7368         2.5124     
  174.3708         5.7357         2.5362     
  174.5232         5.7346         2.5531     
  174.6756         5.7334         2.5601     
  174.8280         5.7323         2.5297     
  174.9804         5.7312         2.5046     
  175.1328         5.7300         2.4990     
  175.2852         5.7290         2.5026     
  175.4376         5.7252         2.4886     
  175.5900         5.7216         2.5182     
  175.7424         5.7180         2.5374     
  175.8948         5.7144         2.5327     
  176.0472         5.7108         2.5182     
  176.1996         5.7073         2.5053     
  176.3520         5.7037         2.5091     
  176.5044         5.7001         2.5273     
  176.6568         5.6965         2.5302     
  176.8092         5.6929         2.5202     
  176.9616         5.6893         2.5249     
  177.1140         5.7069         2.5273     
  177.2664         5.7270         2.5154     
  177.4188         5.7472         2.4988     
  177.5712         5.7673         2.4822     
  177.7236         5.7875         2.4821     
  177.8760         5.7981         2.4891     
  178.0284         5.8022         2.4826     
  178.1808         5.8063         2.5156     
  178.3332         5.8104         2.5306     
  178.4856         5.8145         2.5387     
  178.6380         5.8186         2.5375     
  178.7904         5.8227         2.5191     
  178.9428         5.8268         2.4994     
  179.0952         5.8309         2.4814     
  179.2476         5.8350         2.4886     
  179.4000         5.8391         2.5038     
  179.5524         5.8432         2.5246     
  179.7048         5.8473         2.5440     
  179.8572         5.8473         2.5505     
  180.0096         5.8439         2.5456     
  180.1620         5.8405         2.5342     
  180.3144         5.8372         2.5293     
  180.4668         5.8338         2.5348     
  180.6192         5.8304         2.5400     
  180.7716         5.8271         2.5208     
  180.9240         5.8237         2.4959     
  181.0764         5.8203         2.5118     
  181.2288         5.8170         2.5086     
  181.3812         5.8136         2.4971     
  181.5336         5.8102         2.4892     
  181.6860         5.8095         2.5102     
  181.8384         5.8101         2.5098     
  181.9908         5.8106         2.4993     
  182.1432         5.8112         2.4976     
  182.2956         5.8118         2.5063     
  182.4480         5.8124         2.5274     
  182.6004         5.8130         2.5371     
  182.7528         5.8136         2.5200     
  182.9052         5.8142         2.5012     
  183.0576         5.8148         2.5293     
  183.2100         5.8154         2.5407     
  183.3624         5.8159         2.5369     
  183.5148         5.8165         2.5247     
  183.6672         5.8171         2.5169     
  183.8196         5.8177         2.5140     
  183.9720         5.8183         2.5197     
  184.1244         5.8189         2.5307     
  184.2768         5.8195         2.5213     
  184.4292         5.8201         2.5139     
  184.5816         5.8207         2.5187     
  184.7340         5.8212         2.5483     
  184.8864         5.8218         2.5715     
  185.0388         5.8224         2.5647     
  185.1912         5.8336         2.5494     
  185.3436         5.8451         2.5338     
  185.4960         5.8565         2.5318     
  185.6484         5.8680         2.5324     
  185.8008         5.8794         2.5340     
  185.9532         5.8877         2.5418     
