~Version Information Section
VERS.          2.0                                     : CWLS LOG ASCII Standard
WRAP.          NO                                      : One line per depth step
CREA.          11/11/14                                : LAS Creation Date
~Well Information Section
STRT.m         27.0000                                 : Start Depth
STOP.m         690.8544                                : Stop Depth
STEP.m         0.1524                                  : Step
NULL.          -999.2500                               : Null Value
COMP.          SVERIGES                                : Company
WELL.          GROTLINGBO-1                            : Well
FLD .          GROTLINGBO                              : Field
LOC .          GOTLAND                                 : Location
LOC1.                                                  : Location (UTM)
PROV.          SWEDEN                                  : Province
UWI .          Sc23427-2851                            : UWI Number
API .                                                  : API Number
SECT.                                                  : Section
TOWN.                                                  : Township
RNGE.                                                  : Range
PDAT.          GL                                      : Perm Datum
EPD .m         0                                       : Elevation
LMF .          GL                                      : Log Measured From
DMF .          GL                                      : Drill Measured From
APD .                                                  : Above Perm Datum
EKB .                                                  : Elev-Kelly Bushing
EDF .                                                  : Elev-Drill Floor
EGL .                                                  : Elev-Ground Level
LATI.                                                  : Latitude
LONG.                                                  : Longitude
SRVC.          SCHLUMBERGER                            : Service Company
DATE.          16-MAR-1974                             : Logging Date
PROJ.          GRIPEN                                  : Project
SET .          FDC                                     : Set
~Parameter Information Section
RUN .          1                                       : Run #
DATE.          16/03/1974                              : Date log was run
TDD .m         690.0                                   : Depth - Driller
TDL .m         690.6                                   : Depth - Logger
BLI .m         690.4                                   : Bottom Log Interval
TLI .m         27.3                                    : Top Log Interval
CBD .                                                  : Casing - Driller
CBL .m         27.3                                    : Casing - Logger
CSIZ.in        7                                       : Casing Size
BS1 .in        5 5/16                                  : Bit Size
BS2 .in        5 3/8                                   : Bit Size
BS3 .in        5 1/2                                   : Bit Size
BS4 .in        5 27/32                                 : Bit Size
DFT .          SHALE                                   : Type of Fluid In Hole
DFD .          1.22                                    : Drilling Fluid Density
DFV .                                                  : Drilling Fluid Viscosity
DFPH.                                                  : Drilling Fluid pH
DFL .                                                  : Drilling Fluid Loss
MSS .                                                  : Source of Sample
RMS .                                                  : Mud Resitivity
MST .                                                  : Rm Temperature
RMFS.                                                  : Mud Filtrate Resistivity
MFST.                                                  : Rmf Temperature
RMCS.                                                  : Mud Cake Resitivity
MCST.                                                  : Rmc Temperature
MFSS.                                                  : Source of Rmf
MCSS.                                                  : Source of Rmc
RMBH.                                                  : Rm at BHT
BHT .                                                  : Bottom Hole Temperature
MRT .degc      28                                      : Max Recorded Temperature
OS  .          IES,GRN,BHC                             : Other Services
R001.          Coming up strong dragging 137.0 > 70.0m : Remarks
~Curve Information Section
DEPTH.m                                                : Depth Curve
CAL.in                                                 : Caliper
DEN.g/cc                                               : Density
~ASCII Log Data Section
# ...
  610.3872         5.0271         2.5371     
  610.5396         4.8129         2.5390     
  610.6920         4.7813         2.5504     
  610.8444         4.7864         2.5619     
  610.9968         4.7916         2.5532     
  611.1492         4.8094         2.5487     
  611.3016         4.8430         2.5502     
  611.4540         4.8871         2.5576     
  611.6064         5.0930         2.5601     
  611.7588         5.3111         2.5580     
  611.9112         5.4528         2.5521     
  612.0636         5.5205         2.5414     
  612.2160         5.5459         2.5381     
  612.3684         5.5713         2.5459     
  612.5208         5.5968         2.5578     
  612.6732         5.6222         2.5589     
  612.8256         5.6031         2.5398     
  612.9780         5.5840         2.5394     
  613.1304         5.5649         2.5303     
  613.2828         5.5459         2.5200     
  613.4352         5.5523         2.5053     
  613.5876         5.5652         2.5191     
  613.7400         5.5780         2.5287     
  613.8924         5.5908         2.5106     
  614.0448         5.6037         2.5473     
  614.1972         5.6165         2.5715     
  614.3496         5.6213         2.5606     
  614.5020         5.6196         2.5439     
  614.6544         5.6180         2.5300     
  614.8068         5.6164         2.5410     
  614.9592         5.6148         2.5437     
  615.1116         5.6131         2.5492     
  615.2640         5.6115         2.5623     
  615.4164         5.6099         2.5761     
  615.5688         5.6162         2.5865     
  615.7212         5.6386         2.5835     
  615.8736         5.6997         2.5664     
  616.0260         5.7934         2.5630     
  616.1784         5.8892         2.5666     
  616.3308         5.9235         2.5855     
  616.4832         5.9567         2.5736     
  616.6356         5.9659         2.5629     
  616.7880         5.9288         2.5621     
  616.9404         5.8785         2.5680     
  617.0928         5.9233         2.5715     
  617.2452         6.0430         2.5702     
  617.3976         6.0581         2.5622     
  617.5500         5.9085         2.5400     
  617.7024         5.7882         2.5367     
  617.8548         5.8256         2.5597     
  618.0072         5.8428         2.5804     
  618.1596         5.8257         2.5832     
  618.3120         5.8583         2.6049     
  618.4644         5.9026         2.6020     
  618.6168         5.9469         2.5868     
  618.7692         5.8534         2.5833     
  618.9216         5.7246         2.5562     
  619.0740         5.5958         2.5475     
  619.2264         5.5072         2.5467     
  619.3788         5.5037         2.5648     
  619.5312         5.5232         2.5788     
  619.6836         5.5426         2.5706     
  619.8360         5.5620         2.5354     
  619.9884         5.5616         2.5413     
  620.1408         5.5506         2.5399     
  620.2932         5.5396         2.5352     
  620.4456         5.5286         2.5455     
  620.5980         5.5176         2.5757     
  620.7504         5.5066         2.6049     
  620.9028         5.5138         2.5833     
  621.0552         5.5340         2.5801     
  621.2076         5.5542         2.5903     
  621.3600         5.5744         2.5658     
  621.5124         5.5929         2.5280     
  621.6648         5.6102         2.5186     
  621.8172         5.6275         2.5320     
  621.9696         5.6240         2.5095     
  622.1220         5.6026         2.5059     
  622.2744         5.5812         2.5235     
  622.4268         5.5598         2.5248     
  622.5792         5.5384         2.5287     
  622.7316         5.5170         2.5507     
  622.8840         5.5098         2.5683     
  623.0364         5.5037         2.5594     
  623.1888         5.4976         2.5622     
  623.3412         5.4916         2.5661     
  623.4936         5.4855         2.5548     
  623.6460         5.4794         2.5439     
  623.7984         5.4759         2.5443     
  623.9508         5.4779         2.5494     
  624.1032         5.4798         2.5459     
  624.2556         5.4818         2.5409     
  624.4080         5.4837         2.5360     
  624.5604         5.4857         2.5533     
  624.7128         5.4877         2.5679     
  624.8652         5.4768         2.5542     
  625.0176         5.4526         2.5380     
  625.1700         5.4283         2.5461     
  625.3224         5.4041         2.5788     
  625.4748         5.4269         2.6051     
  625.6272         5.4773         2.5990     
  625.7796         5.5287         2.5936     
  625.9320         5.4905         2.5908     
  626.0844         5.4516         2.5550     
  626.2368         5.4126         2.5534     
  626.3892         5.3736         2.5510     
  626.5416         5.3346         2.5362     
  626.6940         5.2956         2.5215     
  626.8464         5.2633         2.5160     
  626.9988         5.2753         2.5248     
  627.1512         5.2874         2.5367     
  627.3036         5.2995         2.5109     
  627.4560         5.3116         2.4826     
  627.6084         5.3237         2.5013     
  627.7608         5.3358         2.5123     
  627.9132         5.3363         2.5147     
  628.0656         5.2882         2.5049     
  628.2180         5.1480         2.4950     
  628.3704         5.0078         2.4852     
  628.5228         4.9333         2.4753     
  628.6752         4.9182         2.4740     
  628.8276         4.9031         2.4904     
  628.9800         4.8879         2.4977     
  629.1324         4.8832         2.5039     
  629.2848         4.8786         2.5220     
  629.4372         4.8695         2.5307     
  629.5896         4.8268         2.5300     
  629.7420         4.7841         2.5186     
  629.8944         4.7415         2.5041     
  630.0468         4.7143         2.4932     
  630.1992         4.7143         2.5188     
  630.3516         4.7362         2.5394     
  630.5040         4.8206         2.5335     
  630.6564         4.9134         2.5193     
  630.8088         4.9952         2.5037     
  630.9612         4.9995         2.4960     
  631.1136         5.0039         2.4939     
  631.2660         5.0080         2.4907     
  631.4184         5.0460         2.4789     
  631.5708         5.1502         2.4665     
  631.7232         5.2061         2.4656     
  631.8756         5.1568         2.4703     
  632.0280         5.1148         2.4806     
  632.1804         5.1148         2.4874     
  632.3328         5.1821         2.4635     
  632.4852         5.2571         2.4470     
  632.6376         5.3284         2.4405     
  632.7900         5.3366         2.4563     
  632.9424         5.3390         2.4912     
  633.0948         5.3308         2.4890     
  633.2472         5.3225         2.4863     
  633.3996         5.3143         2.4925     
  633.5520         5.3061         2.4961     
  633.7044         5.2979         2.4895     
  633.8568         5.2896         2.4837     
  634.0092         5.3104         2.4895     
  634.1616         5.3365         2.5028     
  634.3140         5.3625         2.5181     
  634.4664         5.3886         2.5335     
  634.6188         5.4146         2.5488     
  634.7712         5.4407         2.5391     
  634.9236         5.4305         2.5343     
  635.0760         5.4044         2.5379     
  635.2284         5.3784         2.5428     
  635.3808         5.3610         2.5324     
  635.5332         5.4156         2.5091     
  635.6856         5.4701         2.4943     
  635.8380         5.5247         2.4866     
  635.9904         5.5554         2.4930     
  636.1428         5.5305         2.5133     
  636.2952         5.4982         2.5054     
  636.4476         5.4659         2.4966     
  636.6000         5.4636         2.5026     
  636.7524         5.4654         2.5093     
