~Version Information Section
VERS.          2.0                                     : CWLS LOG ASCII Standard
WRAP.          NO                                      : One line per depth step
CREA.          11/11/14                                : LAS Creation Date
~Well Information Section
STRT.m         27.0000                                 : Start Depth
STOP.m         690.8544                                : Stop Depth
STEP.m         0.1524                                  : Step
NULL.          -999.2500                               : Null Value
COMP.          SVERIGES                                : Company
WELL.          GROTLINGBO-1                            : Well
FLD .          GROTLINGBO                              : Field
LOC .          GOTLAND                                 : Location
LOC1.                                                  : Location (UTM)
PROV.          SWEDEN                                  : Province
UWI .          Sc23427-2851                            : UWI Number
API .                                                  : API Number
SECT.                                                  : Section
TOWN.                                                  : Township
RNGE.                                                  : Range
PDAT.          GL                                      : Perm Datum
EPD .m         0                                       : Elevation
LMF .          GL                                      : Log Measured From
DMF .          GL                                      : Drill Measured From
APD .                                                  : Above Perm Datum
EKB .                                                  : Elev-Kelly Bushing
EDF .                                                  : Elev-Drill Floor
EGL .                                                  : Elev-Ground Level
LATI.                                                  : Latitude
LONG.                                                  : Longitude
SRVC.          SCHLUMBERGER                            : Service Company
DATE.          16-MAR-1974                             : Logging Date
PROJ.          GRIPEN                                  : Project
SET .          FDC                                     : Set
~Parameter Information Section
RUN .          1                                       : Run #
DATE.          16/03/1974                              : Date log was run
TDD .m         690.0                                   : Depth - Driller
TDL .m         690.6                                   : Depth - Logger
BLI .m         690.4                                   : Bottom Log Interval
TLI .m         27.3                                    : Top Log Interval
CBD .                                                  : Casing - Driller
CBL .m         27.3                                    : Casing - Logger
CSIZ.in        7                                       : Casing Size
BS1 .in        5 5/16                                  : Bit Size
BS2 .in        5 3/8                                   : Bit Size
BS3 .in        5 1/2                                   : Bit Size
BS4 .in        5 27/32                                 : Bit Size
DFT .          SHALE                                   : Type of Fluid In Hole
DFD .          1.22                                    : Drilling Fluid Density
DFV .                                                  : Drilling Fluid Viscosity
DFPH.                                                  : Drilling Fluid pH
DFL .                                                  : Drilling Fluid Loss
MSS .                                                  : Source of Sample
RMS .                                                  : Mud Resitivity
MST .                                                  : Rm Temperature
RMFS.                                                  : Mud Filtrate Resistivity
MFST.                                                  : Rmf Temperature
RMCS.                                                  : Mud Cake Resitivity
MCST.                                                  : Rmc Temperature
MFSS.                                                  : Source of Rmf
MCSS.                                                  : Source of Rmc
RMBH.                                                  : Rm at BHT
BHT .                                                  : Bottom Hole Temperature
MRT .degc      28                                      : Max Recorded Temperature
OS  .          IES,GRN,BHC                             : Other Services
R001.          Coming up strong dragging 137.0 > 70.0m : Remarks
~Curve Information Section
DEPTH.m                                                : Depth Curve
CAL.in                                                 : Caliper
DEN.g/cc                                               : Density
~ASCII Log Data Section
# ...
  451.2816         7.0979         2.7038     
  451.4340         7.1068         2.7017     
  451.5864         7.1155         2.6823     
  451.7388         7.1243         2.6532     
  451.8912         7.1330         2.6554     
  452.0436         7.1417         2.6553     
  452.1960         7.1505         2.6409     
  452.3484         7.1592         2.6250     
  452.5008         7.1680         2.6091     
  452.6532         7.1767         2.5935     
  452.8056         7.1848         2.6015     
  452.9580         7.1886         2.6176     
  453.1104         7.1924         2.6243     
  453.2628         7.1962         2.6189     
  453.4152         7.2000         2.5935     
  453.5676         7.2038         2.6089     
  453.7200         7.2076         2.6206     
  453.8724         7.2095         2.6216     
  454.0248         7.1975         2.6234     
  454.1772         7.1855         2.6354     
  454.3296         7.1735         2.6482     
  454.4820         7.1615         2.6462     
  454.6344         7.1494         2.6490     
  454.7868         7.1374         2.6719     
  454.9392         7.1184         2.6955     
  455.0916         7.1211         2.7132     
  455.2440         7.1238         2.7024     
  455.3964         7.1264         2.6912     
  455.5488         7.1291         2.6891     
  455.7012         7.1318         2.6849     
  455.8536         7.1345         2.6785     
  456.0060         7.1372         2.6818     
  456.1584         7.1398         2.6919     
  456.3108         7.1425         2.6875     
  456.4632         7.1478         2.6871     
  456.6156         7.1572         2.6865     
  456.7680         7.1667         2.6860     
  456.9204         7.1761         2.6873     
  457.0728         7.1856         2.6836     
  457.2252         7.1951         2.6811     
  457.3776         7.2045         2.6842     
  457.5300         7.2140         2.6953     
  457.6824         7.2234         2.6952     
  457.8348         7.2329         2.7118     
  457.9872         7.2423         2.6893     
  458.1396         7.2518         2.6623     
  458.2920         7.2613         2.6527     
  458.4444         7.2610         2.6510     
  458.5968         7.2559         2.6567     
  458.7492         7.2510         2.6547     
  458.9016         7.2434         2.6686     
  459.0540         7.2360         2.6840     
  459.2064         7.2286         2.6858     
  459.3588         7.2212         2.6624     
  459.5112         7.2138         2.6566     
  459.6636         7.2034         2.6604     
  459.8160         7.1911         2.6916     
  459.9684         7.1788         2.6919     
  460.1208         7.1664         2.6709     
  460.2732         7.1541         2.6678     
  460.4256         7.1417         2.6564     
  460.5780         7.1308         2.6269     
  460.7304         7.1308         2.6264     
  460.8828         7.1308         2.6614     
  461.0352         7.1308         2.6731     
  461.1876         7.1308         2.6828     
  461.3400         7.1334         2.6802     
  461.4924         7.1376         2.6692     
  461.6448         7.1418         2.6562     
  461.7972         7.1460         2.6612     
  461.9496         7.1502         2.6566     
  462.1020         7.1544         2.6687     
  462.2544         7.1586         2.6753     
  462.4068         7.1628         2.6775     
  462.5592         7.1670         2.6971     
  462.7116         7.1718         2.7272     
  462.8640         7.1838         2.7335     
  463.0164         7.1958         2.7310     
  463.1688         7.2078         2.7217     
  463.3212         7.2198         2.7057     
  463.4736         7.2318         2.6897     
  463.6260         7.2439         2.6848     
  463.7784         7.2559         2.6777     
  463.9308         7.2679         2.6923     
  464.0832         7.2835         2.7132     
  464.2356         7.3151         2.6769     
  464.3880         7.3466         2.6464     
  464.5404         7.3781         2.6413     
  464.6928         7.4097         2.6580     
  464.8452         7.4412         2.6716     
  464.9976         7.4728         2.6677     
  465.1500         7.5043         2.6987     
  465.3024         7.5359         2.6965     
  465.4548         7.5834         2.6987     
  465.6072         7.6371         2.7085     
  465.7596         7.6908         2.6871     
  465.9120         7.7445         2.6791     
  466.0644         7.7983         2.6845     
  466.2168         7.8520         2.6869     
  466.3692         7.9057         2.6754     
  466.5216         7.9594         2.6656     
  466.6740         8.0131         2.6709     
  466.8264         8.0668         2.6735     
  466.9788         8.1243         2.6555     
  467.1312         8.1827         2.6524     
  467.2836         8.2412         2.6622     
  467.4360         8.2897         2.6552     
  467.5884         8.3199         2.6088     
  467.7408         8.3361         2.5686     
  467.8932         8.2181         2.5366     
  468.0456         7.8109         2.5080     
  468.1980         7.4246         2.5140     
  468.3504         7.0763         2.5439     
  468.5028         6.9221         2.5514     
  468.6552         6.8328         2.5154     
  468.8076         6.7434         2.4721     
  468.9600         6.6409         2.4315     
  469.1124         6.5409         2.3843     
  469.2648         6.4604         2.3495     
  469.4172         6.3798         2.3234     
  469.5696         6.3174         2.3408     
  469.7220         6.3219         2.3280     
  469.8744         6.3263         2.3139     
  470.0268         6.3286         2.2673     
  470.1792         6.3236         2.2345     
  470.3316         6.3185         2.1899     
  470.4840         6.3229         2.1510     
  470.6364         6.3729         2.1256     
  470.7888         6.4870         2.1836     
  470.9412         6.8440         2.2303     
  471.0936         7.3738         2.2399     
  471.2460         7.8090         2.2060     
  471.3984         8.0742         2.1713     
  471.5508         8.1908         2.1326     
  471.7032         8.3074         2.0923     
  471.8556         8.4240         2.0552     
  472.0080         8.5406         1.9884     
  472.1604         8.6572         1.9525     
  472.3128         8.3201         1.9117     
  472.4652         7.7928         1.9043     
  472.6176         7.5924         1.9008     
  472.7700         7.5286         1.8987     
  472.9224         7.3748         1.8980     
  473.0748         7.1669         1.8988     
  473.2272         7.0051         1.8100     
  473.3796         6.9444         1.8100     
  473.5320         6.8838         1.8100     
  473.6844         6.7655         1.8988     
  473.8368         6.5769         1.9872     
  473.9892         6.4425         2.0881     
  474.1416         6.3854         2.1436     
  474.2940         6.3551         2.1928     
  474.4464         6.3233         2.2265     
  474.5988         6.2845         2.2615     
  474.7512         6.2457         2.2981     
  474.9036         6.2149         2.3222     
  475.0560         6.1954         2.3378     
  475.2084         6.1759         2.3441     
  475.3608         6.1562         2.3484     
  475.5132         6.1574         2.3589     
  475.6656         6.1586         2.3856     
  475.8180         6.1598         2.4164     
  475.9704         6.1609         2.4419     
  476.1228         6.1621         2.4655     
  476.2752         6.1633         2.4686     
  476.4276         6.1645         2.4698     
  476.5800         6.1657         2.4753     
  476.7324         6.1669         2.4870     
  476.8848         6.1680         2.5193     
  477.0372         6.1692         2.5377     
  477.1896         6.1649         2.5575     
  477.3420         6.1586         2.5727     
  477.4944         6.1522         2.5692     
  477.6468         6.1459         2.5789     
