~Version Information Section
VERS.          2.0                                     : CWLS LOG ASCII Standard
WRAP.          NO                                      : One line per depth step
CREA.          11/11/14                                : LAS Creation Date
~Well Information Section
STRT.m         27.0000                                 : Start Depth
STOP.m         690.8544                                : Stop Depth
STEP.m         0.1524                                  : Step
NULL.          -999.2500                               : Null Value
COMP.          SVERIGES                                : Company
WELL.          GROTLINGBO-1                            : Well
FLD .          GROTLINGBO                              : Field
LOC .          GOTLAND                                 : Location
LOC1.                                                  : Location (UTM)
PROV.          SWEDEN                                  : Province
UWI .          Sc23427-2851                            : UWI Number
API .                                                  : API Number
SECT.                                                  : Section
TOWN.                                                  : Township
RNGE.                                                  : Range
PDAT.          GL                                      : Perm Datum
EPD .m         0                                       : Elevation
LMF .          GL                                      : Log Measured From
DMF .          GL                                      : Drill Measured From
APD .                                                  : Above Perm Datum
EKB .                                                  : Elev-Kelly Bushing
EDF .                                                  : Elev-Drill Floor
EGL .                                                  : Elev-Ground Level
LATI.                                                  : Latitude
LONG.                                                  : Longitude
SRVC.          SCHLUMBERGER                            : Service Company
DATE.          16-MAR-1974                             : Logging Date
PROJ.          GRIPEN                                  : Project
SET .          FDC                                     : Set
~Parameter Information Section
RUN .          1                                       : Run #
DATE.          16/03/1974                              : Date log was run
TDD .m         690.0                                   : Depth - Driller
TDL .m         690.6                                   : Depth - Logger
BLI .m         690.4                                   : Bottom Log Interval
TLI .m         27.3                                    : Top Log Interval
CBD .                                                  : Casing - Driller
CBL .m         27.3                                    : Casing - Logger
CSIZ.in        7                                       : Casing Size
BS1 .in        5 5/16                                  : Bit Size
BS2 .in        5 3/8                                   : Bit Size
BS3 .in        5 1/2                                   : Bit Size
BS4 .in        5 27/32                                 : Bit Size
DFT .          SHALE                                   : Type of Fluid In Hole
DFD .          1.22                                    : Drilling Fluid Density
DFV .                                                  : Drilling Fluid Viscosity
DFPH.                                                  : Drilling Fluid pH
DFL .                                                  : Drilling Fluid Loss
MSS .                                                  : Source of Sample
RMS .                                                  : Mud Resitivity
MST .                                                  : Rm Temperature
RMFS.                                                  : Mud Filtrate Resistivity
MFST.                                                  : Rmf Temperature
RMCS.                                                  : Mud Cake Resitivity
MCST.                                                  : Rmc Temperature
MFSS.                                                  : Source of Rmf
MCSS.                                                  : Source of Rmc
RMBH.                                                  : Rm at BHT
BHT .                                                  : Bottom Hole Temperature
MRT .degc      28                                      : Max Recorded Temperature
OS  .          IES,GRN,BHC                             : Other Services
R001.          Coming up strong dragging 137.0 > 70.0m : Remarks
~Curve Information Section
DEPTH.m                                                : Depth Curve
CAL.in                                                 : Caliper
DEN.g/cc                                               : Density
~ASCII Log Data Section
# ...
  106.5528         7.4112         2.5349     
  106.7052         7.4112         2.5564     
  106.8576         7.4112         2.5754     
  107.0100         7.4112         2.5617     
  107.1624         7.3915         2.5507     
  107.3148         7.3311         2.5499     
  107.4672         7.2707         2.5642     
  107.6196         7.2103         2.5590     
  107.7720         7.1589         2.5503     
  107.9244         7.1243         2.5352     
  108.0768         7.0908         2.5053     
  108.2292         7.0562         2.4993     
  108.3816         7.0240         2.5000     
  108.5340         7.0465         2.4983     
  108.6864         7.0681         2.5016     
  108.8388         7.0908         2.5186     
  108.9912         7.0575         2.5358     
  109.1436         6.8667         2.5469     
  109.2960         6.6857         2.5621     
  109.4484         6.6253         2.5404     
  109.6008         6.5776         2.5168     
  109.7532         6.5585         2.5066     
  109.9056         6.5394         2.5380     
  110.0580         6.5203         2.5600     
  110.2104         6.5012         2.5728     
  110.3628         6.4822         2.5455     
  110.5152         6.4631         2.5251     
  110.6676         6.4440         2.5047     
  110.8200         6.4249         2.4867     
  110.9724         6.4058         2.4712     
  111.1248         6.3919         2.4665     
  111.2772         6.3828         2.4742     
  111.4296         6.3738         2.4951     
  111.5820         6.3648         2.5160     
  111.7344         6.3623         2.5369     
  111.8868         6.4303         2.5441     
  112.0392         6.4984         2.5447     
  112.1916         6.5276         2.5335     
  112.3440         6.5537         2.5164     
  112.4964         6.5701         2.4905     
  112.6488         6.5340         2.4712     
  112.8012         6.4970         2.4834     
  112.9536         6.4601         2.5009     
  113.1060         6.4232         2.5067     
  113.2584         6.4250         2.5258     
  113.4108         6.4338         2.5345     
  113.5632         6.4425         2.5487     
  113.7156         6.4368         2.5327     
  113.8680         6.3454         2.4886     
  114.0204         6.2539         2.4987     
  114.1728         6.1696         2.5207     
  114.3252         6.1730         2.5105     
  114.4776         6.1771         2.4937     
  114.6300         6.1811         2.4769     
  114.7824         6.1829         2.4728     
  114.9348         6.1829         2.4799     
  115.0872         6.1829         2.4947     
  115.2396         6.1829         2.5104     
  115.3920         6.1829         2.5186     
  115.5444         6.1915         2.5182     
  115.6968         6.2004         2.5316     
  115.8492         6.2092         2.5506     
  116.0016         6.2181         2.5728     
  116.1540         6.2365         2.5641     
  116.3064         6.2667         2.5634     
  116.4588         6.2811         2.5418     
  116.6112         6.2446         2.5079     
  116.7636         6.2082         2.4906     
  116.9160         6.1717         2.4739     
  117.0684         6.1352         2.4924     
  117.2208         6.0988         2.5166     
  117.3732         6.0623         2.5247     
  117.5256         6.0382         2.5001     
  117.6780         6.0461         2.4879     
  117.8304         6.0540         2.4978     
  117.9828         6.0619         2.5250     
  118.1352         6.0698         2.5547     
  118.2876         6.0756         2.5588     
  118.4400         6.0729         2.5490     
  118.5924         6.0702         2.5357     
  118.7448         6.0675         2.5293     
  118.8972         6.0648         2.5398     
  119.0496         6.0621         2.5341     
  119.2020         6.0595         2.5170     
  119.3544         6.0568         2.4986     
  119.5068         6.0541         2.4859     
  119.6592         6.0514         2.4847     
  119.8116         6.0550         2.4896     
  119.9640         6.0771         2.5009     
  120.1164         6.0992         2.5233     
  120.2688         6.1213         2.5195     
  120.4212         6.1433         2.5119     
  120.5736         6.1527         2.5183     
  120.7260         6.1445         2.5296     
  120.8784         6.1362         2.5347     
  121.0308         6.1279         2.5186     
  121.1832         6.1196         2.5322     
  121.3356         6.1113         2.5233     
  121.4880         6.1030         2.4802     
  121.6404         6.0947         2.4785     
  121.7928         6.0864         2.4970     
  121.9452         6.0781         2.5078     
  122.0976         6.1224         2.5224     
  122.2500         6.1832         2.5374     
  122.4024         6.2671         2.5306     
  122.5548         6.3685         2.5205     
  122.7072         6.4051         2.5153     
  122.8596         6.3970         2.5220     
  123.0120         6.3889         2.5170     
  123.1644         6.3853         2.5186     
  123.3168         6.3923         2.5252     
  123.4692         6.3993         2.5195     
  123.6216         6.4063         2.5321     
  123.7740         6.4134         2.5394     
  123.9264         6.4204         2.5183     
  124.0788         6.3930         2.4986     
  124.2312         6.3420         2.5146     
  124.3836         6.2911         2.5334     
  124.5360         6.2402         2.5170     
  124.6884         6.1892         2.5195     
  124.8408         6.1845         2.5353     
  124.9932         6.1864         2.5328     
  125.1456         6.1882         2.5352     
  125.2980         6.1900         2.5454     
  125.4504         6.1919         2.5197     
  125.6028         6.1937         2.4945     
  125.7552         6.1955         2.4997     
  125.9076         6.2435         2.5027     
  126.0600         6.3225         2.5063     
  126.2124         6.4016         2.5123     
  126.3648         6.4417         2.5055     
  126.5172         6.4671         2.4866     
  126.6696         6.4926         2.5109     
  126.8220         6.5180         2.5375     
  126.9744         6.5435         2.5487     
  127.1268         6.5689         2.5641     
  127.2792         6.6007         2.5652     
  127.4316         6.6410         2.5484     
  127.5840         6.6813         2.5312     
  127.7364         6.7216         2.5146     
  127.8888         6.7619         2.5266     
  128.0412         6.8022         2.5380     
  128.1936         6.8425         2.5177     
  128.3460         6.8466         2.5029     
  128.4984         6.8418         2.5026     
  128.6508         6.8369         2.5147     
  128.8032         6.8321         2.5196     
  128.9556         6.8273         2.5232     
  129.1080         6.8326         2.5268     
  129.2604         6.8851         2.5254     
  129.4128         6.9377         2.5103     
  129.5652         6.9828         2.5046     
  129.7176         7.0235         2.5300     
  129.8700         7.0642         2.5171     
  130.0224         7.1049         2.4983     
  130.1748         7.1456         2.5028     
  130.3272         7.1863         2.5133     
  130.4796         7.2271         2.5166     
  130.6320         7.2678         2.5264     
  130.7844         7.3085         2.5270     
  130.9368         7.3492         2.5166     
  131.0892         7.3867         2.5307     
  131.2416         7.4035         2.5326     
  131.3940         7.4203         2.5297     
  131.5464         7.4371         2.5212     
  131.6988         7.4533         2.5073     
  131.8512         7.4667         2.5115     
  132.0036         7.4800         2.5240     
  132.1560         7.4933         2.5296     
  132.3084         7.5066         2.5248     
  132.4608         7.5199         2.5053     
  132.6132         7.5332         2.4979     
  132.7656         7.5465         2.4906     
  132.9180         7.5599         2.4670     
