~Version Information Section
VERS.          2.0                                     : CWLS LOG ASCII Standard
WRAP.          NO                                      : One line per depth step
CREA.          11/11/14                                : LAS Creation Date
~Well Information Section
STRT.m         27.0000                                 : Start Depth
STOP.m         690.8544                                : Stop Depth
STEP.m         0.1524                                  : Step
NULL.          -999.2500                               : Null Value
COMP.          SVERIGES                                : Company
WELL.          GROTLINGBO-1                            : Well
FLD .          GROTLINGBO                              : Field
LOC .          GOTLAND                                 : Location
LOC1.                                                  : Location (UTM)
PROV.          SWEDEN                                  : Province
UWI .          Sc23427-2851                            : UWI Number
API .                                                  : API Number
SECT.                                                  : Section
TOWN.                                                  : Township
RNGE.                                                  : Range
PDAT.          GL                                      : Perm Datum
EPD .m         0                                       : Elevation
LMF .          GL                                      : Log Measured From
DMF .          GL                                      : Drill Measured From
APD .                                                  : Above Perm Datum
EKB .                                                  : Elev-Kelly Bushing
EDF .                                                  : Elev-Drill Floor
EGL .                                                  : Elev-Ground Level
LATI.                                                  : Latitude
LONG.                                                  : Longitude
SRVC.          SCHLUMBERGER                            : Service Company
DATE.          16-MAR-1974                             : Logging Date
PROJ.          GRIPEN                                  : Project
SET .          FDC                                     : Set
~Parameter Information Section
RUN .          1                                       : Run #
DATE.          16/03/1974                              : Date log was run
TDD .m         690.0                                   : Depth - Driller
TDL .m         690.6                                   : Depth - Logger
BLI .m         690.4                                   : Bottom Log Interval
TLI .m         27.3                                    : Top Log Interval
CBD .                                                  : Casing - Driller
CBL .m         27.3                                    : Casing - Logger
CSIZ.in        7                                       : Casing Size
BS1 .in        5 5/16                                  : Bit Size
BS2 .in        5 3/8                                   : Bit Size
BS3 .in        5 1/2                                   : Bit Size
BS4 .in        5 27/32                                 : Bit Size
DFT .          SHALE                                   : Type of Fluid In Hole
DFD .          1.22                                    : Drilling Fluid Density
DFV .                                                  : Drilling Fluid Viscosity
DFPH.                                                  : Drilling Fluid pH
DFL .                                                  : Drilling Fluid Loss
MSS .                                                  : Source of Sample
RMS .                                                  : Mud Resitivity
MST .                                                  : Rm Temperature
RMFS.                                                  : Mud Filtrate Resistivity
MFST.                                                  : Rmf Temperature
RMCS.                                                  : Mud Cake Resitivity
MCST.                                                  : Rmc Temperature
MFSS.                                                  : Source of Rmf
MCSS.                                                  : Source of Rmc
RMBH.                                                  : Rm at BHT
BHT .                                                  : Bottom Hole Temperature
MRT .degc      28                                      : Max Recorded Temperature
OS  .          IES,GRN,BHC                             : Other Services
R001.          Coming up strong dragging 137.0 > 70.0m : Remarks
~Curve Information Section
DEPTH.m                                                : Depth Curve
CAL.in                                                 : Caliper
DEN.g/cc                                               : Density
~ASCII Log Data Section
   27.0000         6.5434         2.6350     
   27.1524         6.6426         2.6488     
   27.3048         6.8064         2.7192     
   27.4572         6.9701         2.6369     
   27.6096         7.0979         2.6190     
   27.7620         7.1412         2.6009     
   27.9144         7.1274         2.6149     
   28.0668         7.1136         2.5865     
   28.2192         7.0998         2.5681     
   28.3716         7.0860         2.5852     
   28.5240         7.0888         2.5923     
   28.6764         7.1185         2.5710     
   28.8288         7.1481         2.5654     
   28.9812         7.1778         2.5701     
   29.1336         7.2075         2.5293     
   29.2860         7.2286         2.5413     
   29.4384         7.2358         2.5515     
   29.5908         7.2136         2.5618     
   29.7432         7.1914         2.5708     
   29.8956         7.1692         2.5474     
   30.0480         7.1470         2.5619     
   30.2004         7.1248         2.5657     
   30.3528         7.1026         2.5862     
   30.5052         7.0804         2.5785     
   30.6576         7.0689         2.5576     
   30.8100         7.0591         2.5387     
   30.9624         7.0493         2.5563     
   31.1148         7.0394         2.5713     
   31.2672         7.0296         2.5798     
   31.4196         7.0257         2.5802     
   31.5720         7.0294         2.6045     
   31.7244         7.0332         2.6002     
   31.8768         7.0370         2.6009     
   32.0292         7.0407         2.5824     
   32.1816         7.0445         2.5699     
   32.3340         7.0483         2.5720     
   32.4864         7.0520         2.5727     
   32.6388         7.0558         2.5640     
   32.7912         7.0596         2.5534     
   32.9436         7.0633         2.5312     
   33.0960         7.0669         2.5153     
   33.2484         7.0704         2.5224     
   33.4008         7.0739         2.5275     
   33.5532         7.0774         2.5199     
   33.7056         7.0809         2.5156     
   33.8580         7.0844         2.5053     
   34.0104         7.0879         2.4879     
   34.1628         7.0914         2.5047     
   34.3152         7.0949         2.5254     
   34.4676         7.0985         2.5352     
   34.6200         7.1020         2.5373     
   34.7724         7.1055         2.5373     
   34.9248         7.1090         2.5262     
   35.0772         7.1125         2.5223     
   35.2296         7.1160         2.5190     
   35.3820         7.0863         2.5114     
   35.5344         7.0319         2.4974     
   35.6868         6.9900         2.4781     
   35.8392         6.9699         2.4861     
   35.9916         6.9497         2.4999     
   36.1440         6.9296         2.4906     
   36.2964         6.9094         2.5056     
   36.4488         6.8909         2.5233     
   36.6012         6.8973         2.5322     
   36.7536         6.9036         2.5222     
   36.9060         6.9100         2.5146     
   37.0584         6.9164         2.5105     
   37.2108         6.9227         2.5041     
   37.3632         6.9291         2.4959     
   37.5156         6.9225         2.4919     
   37.6680         6.9119         2.4979     
   37.8204         6.9014         2.5026     
   37.9728         6.8908         2.5113     
   38.1252         6.8803         2.5148     
   38.2776         6.8697         2.5327     
   38.4300         6.8591         2.5281     
   38.5824         6.8486         2.5148     
   38.7348         6.8380         2.4955     
   38.8872         6.8274         2.4892     
   39.0396         6.8169         2.5022     
   39.1920         6.8096         2.5013     
   39.3444         6.8075         2.5124     
   39.4968         6.8054         2.5307     
   39.6492         6.8034         2.5521     
   39.8016         6.8013         2.5483     
   39.9540         6.7992         2.5412     
   40.1064         6.7971         2.5297     
   40.2588         6.8035         2.5186     
   40.4112         6.8100         2.5145     
   40.5636         6.8166         2.5188     
   40.7160         6.8231         2.5313     
   40.8684         6.8297         2.5487     
   41.0208         6.8362         2.5350     
   41.1732         6.8428         2.5112     
   41.3256         6.8493         2.5061     
   41.4780         6.8558         2.5033     
   41.6304         6.8624         2.5009     
   41.7828         6.8530         2.5281     
   41.9352         6.8391         2.5501     
   42.0876         6.8252         2.5401     
   42.2400         6.8114         2.5347     
   42.3924         6.7975         2.5176     
   42.5448         6.7836         2.5118     
   42.6972         6.7697         2.5074     
   42.8496         6.7559         2.5053     
   43.0020         6.7420         2.5139     
   43.1544         6.7281         2.5217     
   43.3068         6.7142         2.5204     
   43.4592         6.7004         2.5184     
   43.6116         6.6884         2.5116     
   43.7640         6.6818         2.5065     
   43.9164         6.6751         2.5262     
   44.0688         6.6684         2.5205     
   44.2212         6.6618         2.5146     
   44.3736         6.6551         2.5120     
   44.5260         6.6484         2.5091     
   44.6784         6.6418         2.5219     
   44.8308         6.6374         2.5385     
   44.9832         6.6394         2.5507     
   45.1356         6.6414         2.5559     
   45.2880         6.6435         2.5610     
   45.4404         6.6455         2.5661     
   45.5928         6.6475         2.5582     
   45.7452         6.6496         2.5451     
   45.8976         6.6516         2.5394     
   46.0500         6.6536         2.5557     
   46.2024         6.6557         2.5659     
   46.3548         6.6577         2.5533     
   46.5072         6.6597         2.5497     
   46.6596         6.6618         2.5501     
   46.8120         6.6638         2.5437     
   46.9644         6.6658         2.5435     
   47.1168         6.6679         2.5574     
   47.2692         6.6699         2.5487     
   47.4216         6.6719         2.5113     
   47.5740         6.6739         2.4879     
   47.7264         6.6760         2.4819     
   47.8788         6.6769         2.5008     
   48.0312         6.6769         2.5011     
   48.1836         6.6769         2.4966     
   48.3360         6.6769         2.5029     
   48.4884         6.6769         2.5194     
   48.6408         6.6769         2.5213     
   48.7932         6.6769         2.5050     
   48.9456         6.7242         2.5026     
   49.0980         6.7844         2.5181     
   49.2504         6.8152         2.5318     
   49.4028         6.8381         2.5447     
   49.5552         6.8505         2.5474     
   49.7076         6.8505         2.5486     
   49.8600         6.8474         2.5520     
   50.0124         6.8248         2.5216     
   50.1648         6.8023         2.5126     
   50.3172         6.7797         2.5428     
   50.4696         6.7571         2.5354     
   50.6220         6.7416         2.5271     
   50.7744         6.7367         2.5437     
   50.9268         6.7317         2.5514     
   51.0792         6.7267         2.5411     
   51.2316         6.7218         2.5323     
   51.3840         6.7170         2.5411     
   51.5364         6.7175         2.5439     
   51.6888         6.7180         2.5404     
   51.8412         6.7186         2.5449     
   51.9936         6.7191         2.5408     
   52.1460         6.7197         2.5317     
   52.2984         6.7202         2.5390     
   52.4508         6.7207         2.5530     
   52.6032         6.7213         2.5576     
   52.7556         6.7218         2.5356     
   52.9080         6.7223         2.5270     
   53.0604         6.7229         2.5289     
   53.2128         6.7234         2.5334     
   53.3652         6.7239         2.5580     
