~Version Information Section
VERS.          2.0                                     : CWLS LOG ASCII Standard
WRAP.          NO                                      : One line per depth step
CREA.          11/11/14                                : LAS Creation Date
~Well Information Section
STRT.m         27.0000                                 : Start Depth
STOP.m         690.8544                                : Stop Depth
STEP.m         0.1524                                  : Step
NULL.          -999.2500                               : Null Value
COMP.          SVERIGES                                : Company
WELL.          GROTLINGBO-1                            : Well
FLD .          GROTLINGBO                              : Field
LOC .          GOTLAND                                 : Location
LOC1.                                                  : Location (UTM)
PROV.          SWEDEN                                  : Province
UWI .          Sc23427-2851                            : UWI Number
API .                                                  : API Number
SECT.                                                  : Section
TOWN.                                                  : Township
RNGE.                                                  : Range
PDAT.          GL                                      : Perm Datum
EPD .m         0                                       : Elevation
LMF .          GL                                      : Log Measured From
DMF .          GL                                      : Drill Measured From
APD .                                                  : Above Perm Datum
EKB .                                                  : Elev-Kelly Bushing
EDF .                                                  : Elev-Drill Floor
EGL .                                                  : Elev-Ground Level
LATI.                                                  : Latitude
LONG.                                                  : Longitude
SRVC.          SCHLUMBERGER                            : Service Company
DATE.          16-MAR-1974                             : Logging Date
PROJ.          GRIPEN                                  : Project
SET .          FDC                                     : Set
~Parameter Information Section
RUN .          1                                       : Run #
DATE.          16/03/1974                              : Date log was run
TDD .m         690.0                                   : Depth - Driller
TDL .m         690.6                                   : Depth - Logger
BLI .m         690.4                                   : Bottom Log Interval
TLI .m         27.3                                    : Top Log Interval
CBD .                                                  : Casing - Driller
CBL .m         27.3                                    : Casing - Logger
CSIZ.in        7                                       : Casing Size
BS1 .in        5 5/16                                  : Bit Size
BS2 .in        5 3/8                                   : Bit Size
BS3 .in        5 1/2                                   : Bit Size
BS4 .in        5 27/32                                 : Bit Size
DFT .          SHALE                                   : Type of Fluid In Hole
DFD .          1.22                                    : Drilling Fluid Density
DFV .                                                  : Drilling Fluid Viscosity
DFPH.                                                  : Drilling Fluid pH
DFL .                                                  : Drilling Fluid Loss
MSS .                                                  : Source of Sample
RMS .                                                  : Mud Resitivity
MST .                                                  : Rm Temperature
RMFS.                                                  : Mud Filtrate Resistivity
MFST.                                                  : Rmf Temperature
RMCS.                                                  : Mud Cake Resitivity
MCST.                                                  : Rmc Temperature
MFSS.                                                  : Source of Rmf
MCSS.                                                  : Source of Rmc
RMBH.                                                  : Rm at BHT
BHT .                                                  : Bottom Hole Temperature
MRT .degc      28                                      : Max Recorded Temperature
OS  .          IES,GRN,BHC                             : Other Services
R001.          Coming up strong dragging 137.0 > 70.0m : Remarks
~Curve Information Section
DEPTH.m                                                : Depth Curve
CAL.in                                                 : Caliper
DEN.g/cc                                               : Density
~ASCII Log Data Section
# ...
  186.1056         5.8776         2.5426     
  186.2580         5.8675         2.5320     
  186.4104         5.8574         2.5243     
  186.5628         5.8546         2.5195     
  186.7152         5.8924         2.5184     
  186.8676         5.9475         2.5228     
  187.0200         6.0026         2.5217     
  187.1724         5.9827         2.5118     
  187.3248         5.9524         2.4957     
  187.4772         5.9547         2.4731     
  187.6296         5.9727         2.4592     
  187.7820         5.9907         2.4773     
  187.9344         5.9894         2.4894     
  188.0868         5.9801         2.4975     
  188.2392         5.9708         2.4983     
  188.3916         5.9790         2.5025     
  188.5440         5.9906         2.5151     
  188.6964         5.9699         2.5212     
  188.8488         5.9205         2.5253     
  189.0012         5.8710         2.5357     
  189.1536         5.8530         2.5494     
  189.3060         5.8600         2.5540     
  189.4584         5.8669         2.5492     
  189.6108         5.8739         2.5374     
  189.7632         5.8808         2.5200     
  189.9156         5.8878         2.5329     
  190.0680         5.8947         2.5590     
  190.2204         5.9017         2.5768     
  190.3728         5.9087         2.5667     
  190.5252         5.9156         2.5447     
  190.6776         5.9226         2.4920     
  190.8300         5.9295         2.4678     
  190.9824         5.9365         2.4790     
  191.1348         5.9426         2.4999     
  191.2872         5.9426         2.5120     
  191.4396         5.9426         2.5021     
  191.5920         5.9426         2.4931     
  191.7444         5.9426         2.4881     
  191.8968         5.9426         2.5018     
  192.0492         5.9426         2.5216     
  192.2016         5.9426         2.5392     
  192.3540         5.9426         2.5273     
  192.5064         5.9426         2.5160     
  192.6588         5.9426         2.5208     
  192.8112         5.9426         2.5295     
  192.9636         5.9426         2.5354     
  193.1160         5.9426         2.5311     
  193.2684         5.9426         2.5180     
  193.4208         5.9426         2.5419     
  193.5732         5.9426         2.5645     
  193.7256         5.9426         2.5507     
  193.8780         5.9426         2.5279     
  194.0304         5.9426         2.5111     
  194.1828         5.9426         2.5143     
  194.3352         5.9426         2.5347     
  194.4876         5.9426         2.5640     
  194.6400         5.9426         2.5907     
  194.7924         5.9426         2.5776     
  194.9448         5.9426         2.5543     
  195.0972         5.9529         2.5420     
  195.2496         5.9629         2.5378     
  195.4020         5.9729         2.5459     
  195.5544         5.9829         2.5514     
  195.7068         5.9929         2.5280     
  195.8592         6.0029         2.5057     
  196.0116         6.0104         2.5166     
  196.1640         6.0134         2.5064     
  196.3164         6.0164         2.4964     
  196.4688         6.0194         2.4976     
  196.6212         6.0224         2.4997     
  196.7736         6.0254         2.4993     
  196.9260         6.0284         2.5077     
  197.0784         6.0314         2.5314     
  197.2308         6.0344         2.5233     
  197.3832         6.0338         2.5383     
  197.5356         6.0289         2.5652     
  197.6880         6.0240         2.5949     
  197.8404         6.0191         2.5702     
  197.9928         6.0142         2.5537     
  198.1452         6.0093         2.5594     
  198.2976         6.0190         2.5661     
  198.4500         6.0286         2.5669     
  198.6024         6.0413         2.5621     
  198.7548         6.0647         2.5229     
  198.9072         6.0880         2.5046     
  199.0596         6.1114         2.5086     
  199.2120         6.1347         2.4971     
  199.3644         6.1581         2.4859     
  199.5168         6.1814         2.5138     
  199.6692         6.2047         2.5452     
  199.8216         6.2217         2.5741     
  199.9740         6.2161         2.5610     
  200.1264         6.2105         2.5554     
  200.2788         6.2048         2.5533     
  200.4312         6.1992         2.5243     
  200.5836         6.2185         2.5268     
  200.7360         6.2645         2.5347     
  200.8884         6.3106         2.5486     
  201.0408         6.3566         2.5619     
  201.1932         6.3575         2.5735     
  201.3456         6.2966         2.5203     
  201.4980         6.2358         2.4826     
  201.6504         6.1849         2.4887     
  201.8028         6.2001         2.4966     
  201.9552         6.2053         2.4815     
  202.1076         6.1937         2.4663     
  202.2600         6.1821         2.4511     
  202.4124         6.1705         2.4625     
  202.5648         6.1589         2.5316     
  202.7172         6.1614         2.5581     
  202.8696         6.1682         2.5433     
  203.0220         6.1749         2.5287     
  203.1744         6.1817         2.5388     
  203.3268         6.1884         2.5323     
  203.4792         6.1952         2.5106     
  203.6316         6.2020         2.5106     
  203.7840         6.2087         2.5160     
  203.9364         6.2155         2.5051     
  204.0888         6.2222         2.4899     
  204.2412         6.2290         2.5039     
  204.3936         6.2357         2.5193     
  204.5460         6.2397         2.5146     
  204.6984         6.2434         2.5206     
  204.8508         6.2471         2.4984     
  205.0032         6.2765         2.4640     
  205.1556         6.3675         2.4658     
  205.3080         6.4499         2.4513     
  205.4604         6.4499         2.4304     
  205.6128         6.4499         2.4944     
  205.7652         6.4499         2.5193     
  205.9176         6.4499         2.4945     
  206.0700         6.4499         2.4912     
  206.2224         6.4724         2.5009     
  206.3748         6.5001         2.5112     
  206.5272         6.5278         2.5155     
  206.6796         6.5567         2.5022     
  206.8320         6.4970         2.4855     
  206.9844         6.4345         2.4839     
  207.1368         6.3720         2.4611     
  207.2892         6.3356         2.4184     
  207.4416         6.3535         2.4822     
  207.5940         6.3715         2.5297     
  207.7464         6.3729         2.5346     
  207.8988         6.3435         2.5446     
  208.0512         6.3141         2.5688     
  208.2036         6.2847         2.5411     
  208.3560         6.2669         2.5129     
  208.5084         6.2537         2.5035     
  208.6608         6.2405         2.4986     
  208.8132         6.2274         2.5041     
  208.9656         6.2142         2.5082     
  209.1180         6.2081         2.5111     
  209.2704         6.2058         2.5494     
  209.4228         6.2034         2.5603     
  209.5752         6.2011         2.5471     
  209.7276         6.1988         2.5268     
  209.8800         6.1964         2.4968     
  210.0324         6.2057         2.4830     
  210.1848         6.2158         2.4799     
  210.3372         6.2148         2.5037     
  210.4896         6.1867         2.5165     
  210.6420         6.1586         2.5189     
  210.7944         6.1467         2.5003     
  210.9468         6.1556         2.4663     
  211.0992         6.1644         2.3188     
  211.2516         6.1733         2.3546     
  211.4040         6.1821         2.4341     
  211.5564         6.1910         2.5113     
  211.7088         6.1951         2.5367     
  211.8612         6.1921         2.5400     
  212.0136         6.1891         2.5278     
  212.1660         6.1862         2.5214     
  212.3184         6.1832         2.5197     
  212.4708         6.1802         2.5106     
