~Version Information Section
VERS.          2.0                                     : CWLS LOG ASCII Standard
WRAP.          NO                                      : One line per depth step
CREA.          11/11/14                                : LAS Creation Date
~Well Information Section
STRT.m         27.0000                                 : Start Depth
STOP.m         690.8544                                : Stop Depth
STEP.m         0.1524                                  : Step
NULL.          -999.2500                               : Null Value
COMP.          SVERIGES                                : Company
WELL.          GROTLINGBO-1                            : Well
FLD .          GROTLINGBO                              : Field
LOC .          GOTLAND                                 : Location
LOC1.                                                  : Location (UTM)
PROV.          SWEDEN                                  : Province
UWI .          Sc23427-2851                            : UWI Number
API .                                                  : API Number
SECT.                                                  : Section
TOWN.                                                  : Township
RNGE.                                                  : Range
PDAT.          GL                                      : Perm Datum
EPD .m         0                                       : Elevation
LMF .          GL                                      : Log Measured From
DMF .          GL                                      : Drill Measured From
APD .                                                  : Above Perm Datum
EKB .                                                  : Elev-Kelly Bushing
EDF .                                                  : Elev-Drill Floor
EGL .                                                  : Elev-Ground Level
LATI.                                                  : Latitude
LONG.                                                  : Longitude
SRVC.          SCHLUMBERGER                            : Service Company
DATE.          16-MAR-1974                             : Logging Date
PROJ.          GRIPEN                                  : Project
SET .          FDC                                     : Set
~Parameter Information Section
RUN .          1                                       : Run #
DATE.          16/03/1974                              : Date log was run
TDD .m         690.0                                   : Depth - Driller
TDL .m         690.6                                   : Depth - Logger
BLI .m         690.4                                   : Bottom Log Interval
TLI .m         27.3                                    : Top Log Interval
CBD .                                                  : Casing - Driller
CBL .m         27.3                                    : Casing - Logger
CSIZ.in        7                                       : Casing Size
BS1 .in        5 5/16                                  : Bit Size
BS2 .in        5 3/8                                   : Bit Size
BS3 .in        5 1/2                                   : Bit Size
BS4 .in        5 27/32                                 : Bit Size
DFT .          SHALE                                   : Type of Fluid In Hole
DFD .          1.22                                    : Drilling Fluid Density
DFV .                                                  : Drilling Fluid Viscosity
DFPH.                                                  : Drilling Fluid pH
DFL .                                                  : Drilling Fluid Loss
MSS .                                                  : Source of Sample
RMS .                                                  : Mud Resitivity
MST .                                                  : Rm Temperature
RMFS.                                                  : Mud Filtrate Resistivity
MFST.                                                  : Rmf Temperature
RMCS.                                                  : Mud Cake Resitivity
MCST.                                                  : Rmc Temperature
MFSS.                                                  : Source of Rmf
MCSS.                                                  : Source of Rmc
RMBH.                                                  : Rm at BHT
BHT .                                                  : Bottom Hole Temperature
MRT .degc      28                                      : Max Recorded Temperature
OS  .          IES,GRN,BHC                             : Other Services
R001.          Coming up strong dragging 137.0 > 70.0m : Remarks
~Curve Information Section
DEPTH.m                                                : Depth Curve
CAL.in                                                 : Caliper
DEN.g/cc                                               : Density
~ASCII Log Data Section
# ...
  398.2464         6.2127         2.5931     
  398.3988         6.1915         2.6114     
  398.5512         6.1703         2.6804     
  398.7036         6.1546         2.6683     
  398.8560         6.1498         2.6503     
  399.0084         6.1450         2.6236     
  399.1608         6.1514         2.6097     
  399.3132         6.1669         2.6110     
  399.4656         6.1824         2.6316     
  399.6180         6.1963         2.6514     
  399.7704         6.1963         2.6461     
  399.9228         6.1963         2.6394     
  400.0752         6.1963         2.6332     
  400.2276         6.1963         2.6243     
  400.3800         6.1963         2.6572     
  400.5324         6.1963         2.6704     
  400.6848         6.1963         2.6523     
  400.8372         6.1963         2.6415     
  400.9896         6.1980         2.6495     
  401.1420         6.2034         2.6637     
  401.2944         6.2087         2.6704     
  401.4468         6.2141         2.6708     
  401.5992         6.2195         2.6585     
  401.7516         6.2248         2.6408     
  401.9040         6.2302         2.6243     
  402.0564         6.2356         2.6239     
  402.2088         6.2409         2.6243     
  402.3612         6.2463         2.6318     
  402.5136         6.2517         2.6441     
  402.6660         6.2570         2.6514     
  402.8184         6.2624         2.6381     
  402.9708         6.2678         2.6207     
  403.1232         6.2731         2.6236     
  403.2756         6.2817         2.6409     
  403.4280         6.2952         2.6577     
  403.5804         6.3087         2.6596     
  403.7328         6.3221         2.6506     
  403.8852         6.3356         2.6358     
  404.0376         6.3491         2.6258     
  404.1900         6.3626         2.6201     
  404.3424         6.3761         2.6094     
  404.4948         6.3822         2.6042     
  404.6472         6.3803         2.6282     
  404.7996         6.3783         2.6517     
  404.9520         6.3764         2.6292     
  405.1044         6.3744         2.6062     
  405.2568         6.3725         2.6006     
  405.4092         6.3705         2.6209     
  405.5616         6.3819         2.6373     
  405.7140         6.4005         2.6365     
  405.8664         6.4190         2.6373     
  406.0188         6.4376         2.6462     
  406.1712         6.4389         2.6510     
  406.3236         6.4064         2.6584     
  406.4760         6.3738         2.6668     
  406.6284         6.3593         2.6564     
  406.7808         6.3653         2.6443     
  406.9332         6.3714         2.6461     
  407.0856         6.3774         2.6481     
  407.2380         6.3835         2.6455     
  407.3904         6.3895         2.6430     
  407.5428         6.3956         2.6630     
  407.6952         6.4016         2.6402     
  407.8476         6.4076         2.6331     
  408.0000         6.4137         2.6354     
  408.1524         6.4197         2.6458     
  408.3048         6.4258         2.6497     
  408.4572         6.4318         2.6357     
  408.6096         6.4379         2.6376     
  408.7620         6.4439         2.6709     
  408.9144         6.4499         2.7000     
  409.0668         6.4560         2.7040     
  409.2192         6.4620         2.6957     
  409.3716         6.4681         2.6627     
  409.5240         6.4741         2.6239     
  409.6764         6.4766         2.5982     
  409.8288         6.4766         2.6108     
  409.9812         6.4766         2.6281     
  410.1336         6.4766         2.6451     
  410.2860         6.4713         2.6296     
  410.4384         6.4607         2.6289     
  410.5908         6.4502         2.6444     
  410.7432         6.4397         2.6472     
  410.8956         6.4292         2.6424     
  411.0480         6.4187         2.6204     
  411.2004         6.4125         2.5969     
  411.3528         6.4286         2.6391     
  411.5052         6.4446         2.6508     
  411.6576         6.4606         2.6503     
  411.8100         6.4766         2.6366     
  411.9624         6.4926         2.6316     
  412.1148         6.5086         2.6403     
  412.2672         6.5126         2.6528     
  412.4196         6.5042         2.6560     
  412.5720         6.4959         2.6679     
  412.7244         6.4876         2.6510     
  412.8768         6.4793         2.6489     
  413.0292         6.4889         2.6637     
  413.1816         6.5069         2.6523     
  413.3340         6.5248         2.6266     
  413.4864         6.5428         2.6116     
  413.6388         6.5607         2.6199     
  413.7912         6.5787         2.6266     
  413.9436         6.5966         2.6128     
  414.0960         6.6146         2.5863     
  414.2484         6.6325         2.5688     
  414.4008         6.6505         2.5768     
  414.5532         6.6684         2.5528     
  414.7056         6.6769         2.5574     
  414.8580         6.6769         2.5428     
  415.0104         6.6769         2.5120     
  415.1628         6.6900         2.5167     
  415.3152         6.7276         2.5225     
  415.4676         6.7183         2.5210     
  415.6200         6.6741         2.5208     
  415.7724         6.6300         2.5252     
  415.9248         6.5928         2.5342     
  416.0772         6.5767         2.5469     
  416.2296         6.5789         2.5539     
  416.3820         6.5940         2.5585     
  416.5344         6.6090         2.5693     
  416.6868         6.6241         2.5788     
  416.8392         6.6392         2.5657     
  416.9916         6.6542         2.5520     
  417.1440         6.6693         2.5414     
  417.2964         6.6786         2.5618     
  417.4488         6.6819         2.5728     
  417.6012         6.6852         2.5717     
  417.7536         6.6886         2.5908     
  417.9060         6.6716         2.5835     
  418.0584         6.6346         2.5964     
  418.2108         6.5975         2.6076     
  418.3632         6.5604         2.6142     
  418.5156         6.5288         2.6265     
  418.6680         6.5218         2.6243     
  418.8204         6.5149         2.6289     
  418.9728         6.5079         2.6239     
  419.1252         6.5010         2.6142     
  419.2776         6.4940         2.6184     
  419.4300         6.4753         2.6353     
  419.5824         6.4402         2.6430     
  419.7348         6.4050         2.6368     
  419.8872         6.3698         2.6415     
  420.0396         6.3346         2.6704     
  420.1920         6.3031         2.6789     
  420.3444         6.3006         2.6911     
  420.4968         6.2981         2.6923     
  420.6492         6.2957         2.6851     
  420.8016         6.2932         2.6834     
  420.9540         6.2907         2.6945     
  421.1064         6.2882         2.7138     
  421.2588         6.2858         2.7110     
  421.4112         6.2833         2.7175     
  421.5636         6.2808         2.7120     
  421.7160         6.2783         2.7009     
  421.8684         6.2770         2.6976     
  422.0208         6.2801         2.6928     
  422.1732         6.2833         2.6764     
  422.3256         6.2864         2.7070     
  422.4780         6.2896         2.7233     
  422.6304         6.2927         2.7065     
  422.7828         6.2958         2.6974     
  422.9352         6.2990         2.6929     
  423.0876         6.3021         2.6691     
  423.2400         6.3052         2.6537     
  423.3924         6.3084         2.6610     
  423.5448         6.3115         2.6744     
  423.6972         6.3146         2.6877     
  423.8496         6.3360         2.6878     
  424.0020         6.3812         2.6653     
  424.1544         6.4264         2.6335     
  424.3068         6.4715         2.6055     
  424.4592         6.5167         2.5503     
  424.6116         6.5619         2.5153     
