~Version Information Section
VERS.          2.0                                     : CWLS LOG ASCII Standard
WRAP.          NO                                      : One line per depth step
CREA.          11/11/14                                : LAS Creation Date
~Well Information Section
STRT.m         27.0000                                 : Start Depth
STOP.m         690.8544                                : Stop Depth
STEP.m         0.1524                                  : Step
NULL.          -999.2500                               : Null Value
COMP.          SVERIGES                                : Company
WELL.          GROTLINGBO-1                            : Well
FLD .          GROTLINGBO                              : Field
LOC .          GOTLAND                                 : Location
LOC1.                                                  : Location (UTM)
PROV.          SWEDEN                                  : Province
UWI .          Sc23427-2851                            : UWI Number
API .                                                  : API Number
SECT.                                                  : Section
TOWN.                                                  : Township
RNGE.                                                  : Range
PDAT.          GL                                      : Perm Datum
EPD .m         0                                       : Elevation
LMF .          GL                                      : Log Measured From
DMF .          GL                                      : Drill Measured From
APD .                                                  : Above Perm Datum
EKB .                                                  : Elev-Kelly Bushing
EDF .                                                  : Elev-Drill Floor
EGL .                                                  : Elev-Ground Level
LATI.                                                  : Latitude
LONG.                                                  : Longitude
SRVC.          SCHLUMBERGER                            : Service Company
DATE.          16-MAR-1974                             : Logging Date
PROJ.          GRIPEN                                  : Project
SET .          FDC                                     : Set
~Parameter Information Section
RUN .          1                                       : Run #
DATE.          16/03/1974                              : Date log was run
TDD .m         690.0                                   : Depth - Driller
TDL .m         690.6                                   : Depth - Logger
BLI .m         690.4                                   : Bottom Log Interval
TLI .m         27.3                                    : Top Log Interval
CBD .                                                  : Casing - Driller
CBL .m         27.3                                    : Casing - Logger
CSIZ.in        7                                       : Casing Size
BS1 .in        5 5/16                                  : Bit Size
BS2 .in        5 3/8                                   : Bit Size
BS3 .in        5 1/2                                   : Bit Size
BS4 .in        5 27/32                                 : Bit Size
DFT .          SHALE                                   : Type of Fluid In Hole
DFD .          1.22                                    : Drilling Fluid Density
DFV .                                                  : Drilling Fluid Viscosity
DFPH.                                                  : Drilling Fluid pH
DFL .                                                  : Drilling Fluid Loss
MSS .                                                  : Source of Sample
RMS .                                                  : Mud Resitivity
MST .                                                  : Rm Temperature
RMFS.                                                  : Mud Filtrate Resistivity
MFST.                                                  : Rmf Temperature
RMCS.                                                  : Mud Cake Resitivity
MCST.                                                  : Rmc Temperature
MFSS.                                                  : Source of Rmf
MCSS.                                                  : Source of Rmc
RMBH.                                                  : Rm at BHT
BHT .                                                  : Bottom Hole Temperature
MRT .degc      28                                      : Max Recorded Temperature
OS  .          IES,GRN,BHC                             : Other Services
R001.          Coming up strong dragging 137.0 > 70.0m : Remarks
~Curve Information Section
DEPTH.m                                                : Depth Curve
CAL.in                                                 : Caliper
DEN.g/cc                                               : Density
~ASCII Log Data Section
# ...
  292.1760         5.7690         2.5545     
  292.3284         5.7690         2.5420     
  292.4808         5.7690         2.5351     
  292.6332         5.7690         2.5334     
  292.7856         5.7690         2.5411     
  292.9380         5.7690         2.5421     
  293.0904         5.7690         2.5360     
  293.2428         5.7695         2.5364     
  293.3952         5.7706         2.5466     
  293.5476         5.7717         2.5430     
  293.7000         5.7728         2.5367     
  293.8524         5.7740         2.5343     
  294.0048         5.7751         2.5321     
  294.1572         5.7762         2.5338     
  294.3096         5.7773         2.5262     
  294.4620         5.7784         2.5120     
  294.6144         5.7795         2.4886     
  294.7668         5.7806         2.4947     
  294.9192         5.7817         2.4978     
  295.0716         5.7868         2.4956     
  295.2240         5.7975         2.5032     
  295.3764         5.8081         2.5228     
  295.5288         5.8188         2.5368     
  295.6812         5.8295         2.5461     
  295.8336         5.8498         2.5489     
  295.9860         5.8841         2.5338     
  296.1384         5.9155         2.5157     
  296.2908         5.9098         2.5071     
  296.4432         5.9042         2.5018     
  296.5956         5.8986         2.5014     
  296.7480         5.8930         2.5057     
  296.9004         5.8873         2.5093     
  297.0528         5.8817         2.5112     
  297.2052         5.8758         2.5206     
  297.3576         5.8862         2.5192     
  297.5100         5.9447         2.4994     
  297.6624         6.0032         2.4855     
  297.8148         6.0617         2.4906     
  297.9672         6.1202         2.5076     
  298.1196         6.1199         2.5145     
  298.2720         6.1085         2.5098     
  298.4244         6.0970         2.5180     
  298.5768         6.0856         2.5352     
  298.7292         6.0742         2.5504     
  298.8816         6.0627         2.5409     
  299.0340         6.0513         2.5303     
  299.1864         6.0761         2.5251     
  299.3388         6.1081         2.5290     
  299.4912         6.1401         2.5382     
  299.6436         6.1721         2.5395     
  299.7960         6.2041         2.5331     
  299.9484         6.2096         2.5293     
  300.1008         6.2118         2.5868     
  300.2532         6.2149         2.5949     
  300.4056         6.2180         2.5972     
  300.5580         6.2211         2.5884     
  300.7104         6.2242         2.5788     
  300.8628         6.2273         2.5616     
  301.0152         6.2304         2.5492     
  301.1676         6.2335         2.5575     
  301.3200         6.2358         2.5681     
  301.4724         6.2308         2.5690     
  301.6248         6.2259         2.5474     
  301.7772         6.2209         2.5420     
  301.9296         6.2160         2.5375     
  302.0820         6.2110         2.5296     
  302.2344         6.2061         2.5202     
  302.3868         6.2012         2.5046     
  302.5392         6.1962         2.4932     
  302.6916         6.1913         2.5052     
  302.8440         6.1863         2.5213     
  302.9964         6.1869         2.5374     
  303.1488         6.1996         2.5726     
  303.3012         6.2122         2.5685     
  303.4536         6.2096         2.5500     
  303.6060         6.2318         2.5273     
  303.7584         6.2555         2.5339     
  303.9108         6.2792         2.5516     
  304.0632         6.2884         2.5728     
  304.2156         6.2860         2.5547     
  304.3680         6.2836         2.5665     
  304.5204         6.2812         2.5858     
  304.6728         6.2788         2.5976     
  304.8252         6.2764         2.5893     
  304.9776         6.2764         2.5678     
  305.1300         6.2764         2.5398     
  305.2824         6.2764         2.5299     
  305.4348         6.2764         2.5256     
  305.5872         6.2764         2.5421     
  305.7396         6.2764         2.5684     
  305.8920         6.2937         2.5701     
  306.0444         6.3231         2.5700     
  306.1968         6.3526         2.5615     
  306.3492         6.3820         2.5508     
  306.5016         6.4115         2.5349     
  306.6540         6.4026         2.5211     
  306.8064         6.3682         2.5293     
  306.9588         6.3563         2.5126     
  307.1112         6.3893         2.5094     
  307.2636         6.3455         2.5298     
  307.4160         6.3017         2.5572     
  307.5684         6.2864         2.5554     
  307.7208         6.2809         2.5634     
  307.8732         6.2782         2.5632     
  308.0256         6.2883         2.5280     
  308.1780         6.2984         2.5315     
  308.3304         6.3085         2.5374     
  308.4828         6.3186         2.5289     
  308.6352         6.3287         2.5215     
  308.7876         6.3389         2.5186     
  308.9400         6.3490         2.5260     
  309.0924         6.3591         2.5442     
  309.2448         6.3692         2.5611     
  309.3972         6.3793         2.5470     
  309.5496         6.3894         2.5384     
  309.7020         6.3996         2.5464     
  309.8544         6.4097         2.5432     
  310.0068         6.4198         2.5362     
  310.1592         6.4193         2.5272     
  310.3116         6.4133         2.5182     
  310.4640         6.4072         2.5240     
  310.6164         6.4012         2.5568     
  310.7688         6.3952         2.5697     
  310.9212         6.3892         2.5596     
  311.0736         6.3832         2.5462     
  311.2260         6.3772         2.5349     
  311.3784         6.3712         2.5247     
  311.5308         6.3714         2.5146     
  311.6832         6.3734         2.5189     
  311.8356         6.3754         2.5370     
  311.9880         6.3775         2.5585     
  312.1404         6.3795         2.5741     
  312.2928         6.3815         2.5875     
  312.4452         6.3816         2.5875     
  312.5976         6.3733         2.5753     
  312.7500         6.3650         2.5710     
  312.9024         6.3567         2.5743     
  313.0548         6.3484         2.5439     
  313.2072         6.3453         2.5239     
  313.3596         6.3512         2.5213     
  313.5120         6.3572         2.5337     
  313.6644         6.3632         2.5276     
  313.8168         6.3691         2.5266     
  313.9692         6.3751         2.5368     
  314.1216         6.3810         2.5357     
  314.2740         6.3870         2.5200     
  314.4264         6.3930         2.5286     
  314.5788         6.3989         2.5456     
  314.7312         6.4049         2.5520     
  314.8836         6.4108         2.5584     
  315.0360         6.4168         2.5689     
  315.1884         6.4228         2.5768     
  315.3408         6.4287         2.5587     
  315.4932         6.4347         2.5300     
  315.6456         6.4406         2.5180     
  315.7980         6.4466         2.5285     
  315.9504         6.4526         2.5457     
  316.1028         6.4585         2.5505     
  316.2552         6.4566         2.5399     
  316.4076         6.4235         2.5089     
  316.5600         6.3904         2.4966     
  316.7124         6.3573         2.5190     
  316.8648         6.3241         2.5285     
  317.0172         6.3177         2.5538     
  317.1696         6.3195         2.5700     
  317.3220         6.3212         2.5559     
  317.4744         6.3229         2.5706     
  317.6268         6.3246         2.5820     
  317.7792         6.3263         2.5807     
  317.9316         6.3281         2.5727     
  318.0840         6.3298         2.5822     
  318.2364         6.3259         2.5881     
  318.3888         6.3221         2.5873     
  318.5412         6.3183         2.5811     
