~Version Information Section
VERS.          2.0                                     : CWLS LOG ASCII Standard
WRAP.          NO                                      : One line per depth step
CREA.          11/11/14                                : LAS Creation Date
~Well Information Section
STRT.m         27.0000                                 : Start Depth
STOP.m         690.8544                                : Stop Depth
STEP.m         0.1524                                  : Step
NULL.          -999.2500                               : Null Value
COMP.          SVERIGES                                : Company
WELL.          GROTLINGBO-1                            : Well
FLD .          GROTLINGBO                              : Field
LOC .          GOTLAND                                 : Location
LOC1.                                                  : Location (UTM)
PROV.          SWEDEN                                  : Province
UWI .          Sc23427-2851                            : UWI Number
API .                                                  : API Number
SECT.                                                  : Section
TOWN.                                                  : Township
RNGE.                                                  : Range
PDAT.          GL                                      : Perm Datum
EPD .m         0                                       : Elevation
LMF .          GL                                      : Log Measured From
DMF .          GL                                      : Drill Measured From
APD .                                                  : Above Perm Datum
EKB .                                                  : Elev-Kelly Bushing
EDF .                                                  : Elev-Drill Floor
EGL .                                                  : Elev-Ground Level
LATI.                                                  : Latitude
LONG.                                                  : Longitude
SRVC.          SCHLUMBERGER                            : Service Company
DATE.          16-MAR-1974                             : Logging Date
PROJ.          GRIPEN                                  : Project
SET .          FDC                                     : Set
~Parameter Information Section
RUN .          1                                       : Run #
DATE.          16/03/1974                              : Date log was run
TDD .m         690.0                                   : Depth - Driller
TDL .m         690.6                                   : Depth - Logger
BLI .m         690.4                                   : Bottom Log Interval
TLI .m         27.3                                    : Top Log Interval
CBD .                                                  : Casing - Driller
CBL .m         27.3                                    : Casing - Logger
CSIZ.in        7                                       : Casing Size
BS1 .in        5 5/16                                  : Bit Size
BS2 .in        5 3/8                                   : Bit Size
BS3 .in        5 1/2                                   : Bit Size
BS4 .in        5 27/32                                 : Bit Size
DFT .          SHALE                                   : Type of Fluid In Hole
DFD .          1.22                                    : Drilling Fluid Density
DFV .                                                  : Drilling Fluid Viscosity
DFPH.                                                  : Drilling Fluid pH
DFL .                                                  : Drilling Fluid Loss
MSS .                                                  : Source of Sample
RMS .                                                  : Mud Resitivity
MST .                                                  : Rm Temperature
RMFS.                                                  : Mud Filtrate Resistivity
MFST.                                                  : Rmf Temperature
RMCS.                                                  : Mud Cake Resitivity
MCST.                                                  : Rmc Temperature
MFSS.                                                  : Source of Rmf
MCSS.                                                  : Source of Rmc
RMBH.                                                  : Rm at BHT
BHT .                                                  : Bottom Hole Temperature
MRT .degc      28                                      : Max Recorded Temperature
OS  .          IES,GRN,BHC                             : Other Services
R001.          Coming up strong dragging 137.0 > 70.0m : Remarks
~Curve Information Section
DEPTH.m                                                : Depth Curve
CAL.in                                                 : Caliper
DEN.g/cc                                               : Density
~ASCII Log Data Section
# ...
   80.0352         8.0584         2.5527     
   80.1876         8.0608         2.5450     
   80.3400         8.0632         2.5347     
   80.4924         8.0656         2.5435     
   80.6448         8.0681         2.5661     
   80.7972         8.0705         2.5584     
   80.9496         8.0729         2.5417     
   81.1020         8.0753         2.5287     
   81.2544         8.0778         2.5253     
   81.4068         8.0775         2.5159     
   81.5592         8.0752         2.5143     
   81.7116         8.0730         2.5326     
   81.8640         8.0707         2.5464     
   82.0164         8.0685         2.5420     
   82.1688         8.0662         2.5435     
   82.3212         8.0747         2.5341     
   82.4736         8.0892         2.5307     
   82.6260         8.1037         2.5324     
   82.7784         8.1182         2.5297     
   82.9308         8.1327         2.5366     
   83.0832         8.1471         2.5541     
   83.2356         8.1616         2.5569     
   83.3880         8.1696         2.5457     
   83.5404         8.1595         2.5347     
   83.6928         8.1495         2.5373     
   83.8452         8.1395         2.5409     
   83.9976         8.1295         2.5402     
   84.1500         8.1195         2.5334     
   84.3024         8.1095         2.5234     
   84.4548         8.0995         2.5187     
   84.6072         8.0895         2.5174     
   84.7596         8.0795         2.5208     
   84.9120         8.0695         2.5332     
   85.0644         8.0594         2.5463     
   85.2168         8.0532         2.5489     
   85.3692         8.0574         2.5394     
   85.5216         8.0617         2.5481     
   85.6740         8.0659         2.5309     
   85.8264         8.0701         2.5097     
   85.9788         8.0744         2.4989     
   86.1312         8.0788         2.4979     
   86.2836         8.0771         2.5198     
   86.4360         8.0753         2.5466     
   86.5884         8.0735         2.5748     
   86.7408         8.0717         2.5659     
   86.8932         8.0699         2.5485     
   87.0456         8.0682         2.5406     
   87.1980         8.0664         2.5358     
   87.3504         8.0804         2.5481     
   87.5028         8.1134         2.5506     
   87.6552         8.1463         2.5446     
   87.8076         8.1793         2.5464     
   87.9600         8.1455         2.5501     
   88.1124         8.1455         2.5374     
   88.2648         8.1589         2.5307     
   88.4172         8.1589         2.5379     
   88.5696         8.1407         2.5521     
   88.7220         8.1234         2.5439     
   88.8744         8.1062         2.5371     
   89.0268         8.0889         2.5639     
   89.1792         8.0716         2.5978     
   89.3316         8.0689         2.6317     
   89.4840         8.0744         2.6401     
   89.6364         8.0831         2.6235     
   89.7888         8.1036         2.5992     
   89.9412         8.1242         2.5820     
   90.0936         8.1447         2.5804     
   90.2460         8.1652         2.5754     
   90.3984         8.1858         2.5681     
   90.5508         8.2063         2.5718     
   90.7032         8.2268         2.5679     
   90.8556         8.2474         2.5497     
   91.0080         8.2679         2.5347     
   91.1604         8.2884         2.5312     
   91.3128         8.3090         2.5294     
   91.4652         8.3085         2.5261     
   91.6176         8.2875         2.5195     
   91.7700         8.2666         2.5175     
   91.9224         8.2457         2.5260     
   92.0748         8.2247         2.5408     
   92.2272         8.2038         2.5472     
   92.3796         8.1828         2.5387     
   92.5320         8.1695         2.5604     
   92.6844         8.1640         2.5748     
   92.8368         8.1584         2.5826     
   92.9892         8.1529         2.5644     
   93.1416         8.1474         2.5374     
   93.2940         8.1418         2.5452     
   93.4464         8.1363         2.5595     
   93.5988         8.1189         2.5701     
   93.7512         8.0665         2.5461     
   93.9036         8.0243         2.5427     
   94.0560         8.0191         2.5556     
   94.2084         8.0140         2.5749     
   94.3608         8.0250         2.5863     
   94.5132         8.0462         2.5960     
   94.6656         8.0674         2.5868     
   94.8180         8.0886         2.5922     
   94.9704         8.1055         2.5732     
   95.1228         8.1055         2.5535     
   95.2752         8.1055         2.5627     
   95.4276         8.0968         2.5718     
   95.5800         8.0534         2.5652     
   95.7324         8.0100         2.5468     
   95.8848         7.9799         2.5320     
   96.0372         7.9672         2.5456     
   96.1896         7.9642         2.5434     
   96.3420         7.9814         2.5251     
   96.4944         7.9987         2.5227     
   96.6468         7.9778         2.5374     
   96.7992         7.9568         2.5285     
   96.9516         7.9359         2.5203     
   97.1040         7.9149         2.5277     
   97.2564         7.8940         2.5380     
   97.4088         7.8919         2.5415     
   97.5612         7.8919         2.5477     
   97.7136         7.8919         2.5492     
   97.8660         7.8919         2.5367     
   98.0184         7.8919         2.5394     
   98.1708         7.8620         2.5163     
   98.3232         7.8328         2.5280     
   98.4756         7.8036         2.5396     
   98.6280         7.7878         2.5391     
   98.7804         7.7955         2.5445     
   98.9328         7.8032         2.5533     
   99.0852         7.8109         2.5668     
   99.2376         7.8186         2.5761     
   99.3900         7.8272         2.5700     
   99.5424         7.8358         2.5698     
   99.6948         7.8191         2.5794     
   99.8472         7.8024         2.5849     
   99.9996         7.7857         2.5860     
  100.1520         7.7690         2.5811     
  100.3044         7.7523         2.5741     
  100.4568         7.7356         2.5643     
  100.6092         7.7316         2.5695     
  100.7616         7.7764         2.5940     
  100.9140         7.8344         2.6203     
  101.0664         7.8652         2.5654     
  101.2188         7.8474         2.5715     
  101.3712         7.8105         2.5462     
  101.5236         7.7737         2.5416     
  101.6760         7.7368         2.5394     
  101.8284         7.7251         2.5461     
  101.9808         7.7227         2.5610     
  102.1332         7.7653         2.5805     
  102.2856         7.8079         2.5902     
  102.4380         7.8228         2.5452     
  102.5904         7.8350         2.5350     
  102.7428         7.8342         2.5164     
  102.8952         7.8283         2.5013     
  103.0476         7.8223         2.5278     
  103.2000         7.8164         2.5304     
  103.3524         7.8117         2.5321     
  103.5048         7.8117         2.5415     
  103.6572         7.8415         2.5392     
  103.8096         7.8710         2.5220     
  103.9620         7.9005         2.5053     
  104.1144         7.9095         2.5187     
  104.2668         7.8861         2.5374     
  104.4192         7.8627         2.5313     
  104.5716         7.8108         2.5300     
  104.7240         7.7343         2.5115     
  104.8764         7.6577         2.5015     
  105.0288         7.5812         2.5075     
  105.1812         7.5047         2.5314     
  105.3336         7.4761         2.5441     
  105.4860         7.5003         2.5075     
  105.6384         7.5245         2.4950     
  105.7908         7.5487         2.4993     
  105.9432         7.5681         2.5255     
  106.0956         7.5100         2.5384     
  106.2480         7.4520         2.5336     
  106.4004         7.4112         2.5310     
