~Version Information Section
VERS.          2.0                                     : CWLS LOG ASCII Standard
WRAP.          NO                                      : One line per depth step
CREA.          11/11/14                                : LAS Creation Date
~Well Information Section
STRT.m         27.0000                                 : Start Depth
STOP.m         690.8544                                : Stop Depth
STEP.m         0.1524                                  : Step
NULL.          -999.2500                               : Null Value
COMP.          SVERIGES                                : Company
WELL.          GROTLINGBO-1                            : Well
FLD .          GROTLINGBO                              : Field
LOC .          GOTLAND                                 : Location
LOC1.                                                  : Location (UTM)
PROV.          SWEDEN                                  : Province
UWI .          Sc23427-2851                            : UWI Number
API .                                                  : API Number
SECT.                                                  : Section
TOWN.                                                  : Township
RNGE.                                                  : Range
PDAT.          GL                                      : Perm Datum
EPD .m         0                                       : Elevation
LMF .          GL                                      : Log Measured From
DMF .          GL                                      : Drill Measured From
APD .                                                  : Above Perm Datum
EKB .                                                  : Elev-Kelly Bushing
EDF .                                                  : Elev-Drill Floor
EGL .                                                  : Elev-Ground Level
LATI.                                                  : Latitude
LONG.                                                  : Longitude
SRVC.          SCHLUMBERGER                            : Service Company
DATE.          16-MAR-1974                             : Logging Date
PROJ.          GRIPEN                                  : Project
SET .          FDC                                     : Set
~Parameter Information Section
RUN .          1                                       : Run #
DATE.          16/03/1974                              : Date log was run
TDD .m         690.0                                   : Depth - Driller
TDL .m         690.6                                   : Depth - Logger
BLI .m         690.4                                   : Bottom Log Interval
TLI .m         27.3                                    : Top Log Interval
CBD .                                                  : Casing - Driller
CBL .m         27.3                                    : Casing - Logger
CSIZ.in        7                                       : Casing Size
BS1 .in        5 5/16                                  : Bit Size
BS2 .in        5 3/8                                   : Bit Size
BS3 .in        5 1/2                                   : Bit Size
BS4 .in        5 27/32                                 : Bit Size
DFT .          SHALE                                   : Type of Fluid In Hole
DFD .          1.22                                    : Drilling Fluid Density
DFV .                                                  : Drilling Fluid Viscosity
DFPH.                                                  : Drilling Fluid pH
DFL .                                                  : Drilling Fluid Loss
MSS .                                                  : Source of Sample
RMS .                                                  : Mud Resitivity
MST .                                                  : Rm Temperature
RMFS.                                                  : Mud Filtrate Resistivity
MFST.                                                  : Rmf Temperature
RMCS.                                                  : Mud Cake Resitivity
MCST.                                                  : Rmc Temperature
MFSS.                                                  : Source of Rmf
MCSS.                                                  : Source of Rmc
RMBH.                                                  : Rm at BHT
BHT .                                                  : Bottom Hole Temperature
MRT .degc      28                                      : Max Recorded Temperature
OS  .          IES,GRN,BHC                             : Other Services
R001.          Coming up strong dragging 137.0 > 70.0m : Remarks
~Curve Information Section
DEPTH.m                                                : Depth Curve
CAL.in                                                 : Caliper
DEN.g/cc                                               : Density
~ASCII Log Data Section
# ...
  504.3168         7.2666         2.5481     
  504.4692         7.4033         2.5368     
  504.6216         7.5312         2.5273     
  504.7740         7.5277         2.5313     
  504.9264         7.5242         2.5599     
  505.0788         7.5207         2.5542     
  505.2312         7.5173         2.5273     
  505.3836         7.5138         2.5288     
  505.5360         7.5103         2.5105     
  505.6884         7.5068         2.5218     
  505.8408         7.5200         2.5173     
  505.9932         7.5603         2.5375     
  506.1456         7.5989         2.5497     
  506.2980         7.6348         2.5479     
  506.4504         7.6707         2.5795     
  506.6028         7.7067         2.5468     
  506.7552         7.7380         2.5242     
  506.9076         7.7588         2.5057     
  507.0600         7.7797         2.5134     
  507.2124         7.8005         2.5062     
  507.3648         7.8213         2.5019     
  507.5172         7.8422         2.5278     
  507.6696         7.8630         2.5523     
  507.8220         7.8839         2.5602     
  507.9744         7.9047         2.5509     
  508.1268         7.9255         2.5328     
  508.2792         7.9376         2.5291     
  508.4316         7.9458         2.5588     
  508.5840         7.9540         2.5882     
  508.7364         7.9622         2.5753     
  508.8888         7.9704         2.5654     
  509.0412         7.9786         2.5659     
  509.1936         7.9865         2.5688     
  509.3460         7.9934         2.5717     
  509.4984         8.0003         2.5588     
  509.6508         8.0072         2.5601     
  509.8032         8.0141         2.5743     
  509.9556         8.0210         2.5751     
  510.1080         8.0279         2.5799     
  510.2604         8.0348         2.5806     
  510.4128         8.0417         2.5657     
  510.5652         8.0486         2.5504     
  510.7176         8.0555         2.5523     
  510.8700         8.0623         2.5287     
  511.0224         8.0692         2.5166     
  511.1748         8.0761         2.5376     
  511.3272         8.0733         2.5507     
  511.4796         8.0644         2.5394     
  511.6320         8.0556         2.5177     
  511.7844         8.0467         2.5175     
  511.9368         8.0378         2.5267     
  512.0892         8.0284         2.5413     
  512.2416         8.0191         2.5536     
  512.3940         8.0098         2.5472     
  512.5464         8.0004         2.5402     
  512.6988         7.9465         2.5333     
  512.8512         7.8821         2.5280     
  513.0036         7.8177         2.5335     
  513.1560         7.7691         2.5215     
  513.3084         7.7600         2.4941     
  513.4608         7.7509         2.4986     
  513.6132         7.7418         2.5124     
  513.7656         7.7327         2.5267     
  513.9180         7.6879         2.5191     
  514.0704         7.6383         2.5133     
  514.2228         7.6115         2.5223     
  514.3752         7.6115         2.5296     
  514.5276         7.6038         2.5191     
  514.6800         7.5743         2.5193     
  514.8324         7.5447         2.5246     
  514.9848         7.5151         2.5321     
  515.1372         7.4855         2.5439     
  515.2896         7.4862         2.5561     
  515.4420         7.4972         2.5521     
  515.5944         7.4985         2.5454     
  515.7468         7.4794         2.5487     
  515.8992         7.4507         2.5466     
  516.0516         7.3900         2.5430     
  516.2040         7.3311         2.5654     
  516.3564         7.3299         2.5577     
  516.5088         7.3287         2.5253     
  516.6612         7.3275         2.5112     
  516.8136         7.3264         2.5050     
  516.9660         7.3252         2.5099     
  517.1184         7.3240         2.5269     
  517.2708         7.3228         2.5374     
  517.4232         7.3217         2.5474     
  517.5756         7.3205         2.5519     
  517.7280         7.3193         2.5543     
  517.8804         7.3181         2.5547     
  518.0328         7.3113         2.5541     
  518.1852         7.3020         2.5528     
  518.3376         7.2927         2.5453     
  518.4900         7.2833         2.5307     
  518.6424         7.2740         2.5083     
  518.7948         7.2647         2.4946     
  518.9472         7.2554         2.5024     
  519.0996         7.2460         2.5043     
  519.2520         7.2367         2.5060     
  519.4044         7.2274         2.5072     
  519.5568         7.2219         2.4953     
  519.7092         7.2183         2.4952     
  519.8616         7.2147         2.5023     
  520.0140         7.2112         2.4984     
  520.1664         7.2076         2.4989     
  520.3188         7.2040         2.5112     
  520.4712         7.2004         2.5180     
  520.6236         7.1969         2.5079     
  520.7760         7.1933         2.4898     
  520.9284         7.1897         2.4874     
  521.0808         7.1861         2.5044     
  521.2332         7.1825         2.5174     
  521.3856         7.1790         2.5180     
  521.5380         7.1754         2.5023     
  521.6904         7.1718         2.5009     
  521.8428         7.1682         2.4918     
  521.9952         7.1647         2.4936     
  522.1476         7.1611         2.5146     
  522.3000         7.1575         2.5354     
  522.4524         7.1916         2.5400     
  522.6048         7.2251         2.5253     
  522.7572         7.2587         2.5328     
  522.9096         7.2911         2.5453     
  523.0620         7.3063         2.5533     
  523.2144         7.3211         2.5556     
  523.3668         7.3358         2.5419     
  523.5192         7.3505         2.5293     
  523.6716         7.3875         2.5461     
  523.8240         7.4461         2.5352     
  523.9764         7.5047         2.4970     
  524.1288         7.5633         2.4830     
  524.2812         7.5690         2.4805     
  524.4336         7.5662         2.4800     
  524.5860         7.5634         2.4874     
  524.7384         7.5606         2.5026     
  524.8908         7.5578         2.5104     
  525.0432         7.5550         2.4934     
  525.1956         7.5523         2.4995     
  525.3480         7.5495         2.5078     
  525.5004         7.5467         2.5139     
  525.6528         7.5439         2.5171     
  525.8052         7.5411         2.5112     
  525.9576         7.5383         2.4993     
  526.1100         7.5355         2.4946     
  526.2624         7.5327         2.5050     
  526.4148         7.5324         2.5118     
  526.5672         7.5342         2.5099     
  526.7196         7.5361         2.5160     
  526.8720         7.5380         2.5242     
  527.0244         7.5398         2.5307     
  527.1768         7.5417         2.5125     
  527.3292         7.5436         2.5202     
  527.4816         7.5500         2.5275     
  527.6340         7.5641         2.5331     
  527.7864         7.5782         2.5373     
  527.9388         7.5923         2.5278     
  528.0912         7.6064         2.5193     
  528.2436         7.6141         2.5423     
  528.3960         7.6181         2.5220     
  528.5484         7.6222         2.5015     
  528.7008         7.6228         2.4946     
  528.8532         7.6167         2.5139     
  529.0056         7.6107         2.5218     
  529.1580         7.6046         2.5363     
  529.3104         7.5986         2.5454     
  529.4628         7.5925         2.5164     
  529.6152         7.5865         2.5071     
  529.7676         7.5804         2.5059     
  529.9200         7.5744         2.5118     
  530.0724         7.5683         2.5104     
  530.2248         7.5623         2.4985     
  530.3772         7.5562         2.4986     
  530.5296         7.5501         2.5215     
  530.6820         7.5448         2.5413     
