~Version Information Section
VERS.          2.0                                     : CWLS LOG ASCII Standard
WRAP.          NO                                      : One line per depth step
CREA.          11/11/14                                : LAS Creation Date
~Well Information Section
STRT.m         27.0000                                 : Start Depth
STOP.m         690.8544                                : Stop Depth
STEP.m         0.1524                                  : Step
NULL.          -999.2500                               : Null Value
COMP.          SVERIGES                                : Company
WELL.          GROTLINGBO-1                            : Well
FLD .          GROTLINGBO                              : Field
LOC .          GOTLAND                                 : Location
LOC1.                                                  : Location (UTM)
PROV.          SWEDEN                                  : Province
UWI .          Sc23427-2851                            : UWI Number
API .                                                  : API Number
SECT.                                                  : Section
TOWN.                                                  : Township
RNGE.                                                  : Range
PDAT.          GL                                      : Perm Datum
EPD .m         0                                       : Elevation
LMF .          GL                                      : Log Measured From
DMF .          GL                                      : Drill Measured From
APD .                                                  : Above Perm Datum
EKB .                                                  : Elev-Kelly Bushing
EDF .                                                  : Elev-Drill Floor
EGL .                                                  : Elev-Ground Level
LATI.                                                  : Latitude
LONG.                                                  : Longitude
SRVC.          SCHLUMBERGER                            : Service Company
DATE.          16-MAR-1974                             : Logging Date
PROJ.          GRIPEN                                  : Project
SET .          FDC                                     : Set
~Parameter Information Section
RUN .          1                                       : Run #
DATE.          16/03/1974                              : Date log was run
TDD .m         690.0                                   : Depth - Driller
TDL .m         690.6                                   : Depth - Logger
BLI .m         690.4                                   : Bottom Log Interval
TLI .m         27.3                                    : Top Log Interval
CBD .                                                  : Casing - Driller
CBL .m         27.3                                    : Casing - Logger
CSIZ.in        7                                       : Casing Size
BS1 .in        5 5/16                                  : Bit Size
BS2 .in        5 3/8                                   : Bit Size
BS3 .in        5 1/2                                   : Bit Size
BS4 .in        5 27/32                                 : Bit Size
DFT .          SHALE                                   : Type of Fluid In Hole
DFD .          1.22                                    : Drilling Fluid Density
DFV .                                                  : Drilling Fluid Viscosity
DFPH.                                                  : Drilling Fluid pH
DFL .                                                  : Drilling Fluid Loss
MSS .                                                  : Source of Sample
RMS .                                                  : Mud Resitivity
MST .                                                  : Rm Temperature
RMFS.                                                  : Mud Filtrate Resistivity
MFST.                                                  : Rmf Temperature
RMCS.                                                  : Mud Cake Resitivity
MCST.                                                  : Rmc Temperature
MFSS.                                                  : Source of Rmf
MCSS.                                                  : Source of Rmc
RMBH.                                                  : Rm at BHT
BHT .                                                  : Bottom Hole Temperature
MRT .degc      28                                      : Max Recorded Temperature
OS  .          IES,GRN,BHC                             : Other Services
R001.          Coming up strong dragging 137.0 > 70.0m : Remarks
~Curve Information Section
DEPTH.m                                                : Depth Curve
CAL.in                                                 : Caliper
DEN.g/cc                                               : Density
~ASCII Log Data Section
# ...
  318.6936         6.3144         2.5721     
  318.8460         6.3106         2.5835     
  318.9984         6.3068         2.6044     
  319.1508         6.3031         2.6022     
  319.3032         6.3150         2.5845     
  319.4556         6.3266         2.5749     
  319.6080         6.3382         2.5785     
  319.7604         6.3498         2.5929     
  319.9128         6.3614         2.6049     
  320.0652         6.3730         2.6074     
  320.2176         6.3827         2.5896     
  320.3700         6.3791         2.5756     
  320.5224         6.3754         2.5576     
  320.6748         6.3717         2.5360     
  320.8272         6.3728         2.5374     
  320.9796         6.3788         2.5469     
  321.1320         6.3848         2.5493     
  321.2844         6.3909         2.5481     
  321.4368         6.3965         2.5540     
  321.5892         6.3965         2.5539     
  321.7416         6.3976         2.5499     
  321.8940         6.4006         2.5469     
  322.0464         6.4036         2.5518     
  322.1988         6.4067         2.5592     
  322.3512         6.4097         2.5595     
  322.5036         6.3989         2.5817     
  322.6560         6.3872         2.5814     
  322.8084         6.3754         2.5812     
  322.9608         6.3636         2.5841     
  323.1132         6.3678         2.5936     
  323.2656         6.4087         2.6158     
  323.4180         6.4496         2.6119     
  323.5704         6.4521         2.6081     
  323.7228         6.4353         2.6045     
  323.8752         6.4187         2.5846     
  324.0276         6.4027         2.5858     
  324.1800         6.3866         2.5721     
  324.3324         6.3515         2.5703     
  324.4848         6.3110         2.5826     
  324.6372         6.2706         2.5915     
  324.7896         6.2230         2.5868     
  324.9420         6.2406         2.5772     
  325.0944         6.2597         2.5654     
  325.2468         6.2750         2.5662     
  325.3992         6.2639         2.5790     
  325.5516         6.2528         2.5892     
  325.7040         6.2416         2.5838     
  325.8564         6.2305         2.5653     
  326.0088         6.2194         2.5556     
  326.1612         6.2083         2.5678     
  326.3136         6.1972         2.5885     
  326.4660         6.2070         2.5980     
  326.6184         6.2034         2.5975     
  326.7708         6.1997         2.5789     
  326.9232         6.1960         2.5583     
  327.0756         6.1923         2.5534     
  327.2280         6.1886         2.5700     
  327.3804         6.1849         2.5742     
  327.5328         6.1812         2.5911     
  327.6852         6.1775         2.6162     
  327.8376         6.1739         2.6099     
  327.9900         6.1702         2.5914     
  328.1424         6.2045         2.5721     
  328.2948         6.2464         2.5581     
  328.4472         6.2764         2.5599     
  328.5996         6.2764         2.5601     
  328.7520         6.2710         2.5812     
  328.9044         6.2609         2.5873     
  329.0568         6.2315         2.5741     
  329.2092         6.2020         2.5575     
  329.3616         6.1726         2.5480     
  329.5140         6.1431         2.5367     
  329.6664         6.1165         2.5449     
  329.8188         6.1209         2.5331     
  329.9712         6.1252         2.5424     
  330.1236         6.1295         2.5424     
  330.2760         6.1339         2.5410     
  330.4284         6.1382         2.5818     
  330.5808         6.1425         2.6223     
  330.7332         6.1429         2.6044     
  330.8856         6.1429         2.5869     
  331.0380         6.1429         2.5873     
  331.1904         6.1310         2.5868     
  331.3428         6.1153         2.5684     
  331.4952         6.0996         2.5562     
  331.6476         6.0839         2.5514     
  331.8000         6.0682         2.5857     
  331.9524         6.0525         2.6142     
  332.1048         6.0368         2.5914     
  332.2572         6.0227         2.5665     
  332.4096         6.0227         2.5519     
  332.5620         6.0227         2.5490     
  332.7144         6.0227         2.5597     
  332.8668         6.0300         2.5675     
  333.0192         6.0389         2.5651     
  333.1716         6.0477         2.5626     
  333.3240         6.0566         2.5510     
  333.4764         6.0655         2.5521     
  333.6288         6.0744         2.4995     
  333.7812         6.0649         2.4672     
  333.9336         6.0510         2.4725     
  334.0860         6.0372         2.5204     
  334.2384         6.0233         2.5406     
  334.3908         6.0093         2.5445     
  334.5432         6.0085         2.5341     
  334.6956         6.0076         2.5315     
  334.8480         6.0068         2.5393     
  335.0004         6.0059         2.5588     
  335.1528         6.0051         2.5748     
  335.3052         6.0042         2.5484     
  335.4576         6.0034         2.5458     
  335.6100         6.0025         2.5339     
  335.7624         6.0017         2.5306     
  335.9148         6.0008         2.5305     
  336.0672         6.0000         2.5168     
  336.2196         5.9991         2.5033     
  336.3720         5.9983         2.5156     
  336.5244         5.9974         2.5109     
  336.6768         5.9966         2.4999     
  336.8292         5.9966         2.5007     
  336.9816         5.9988         2.5271     
  337.1340         6.0009         2.5583     
  337.2864         6.0030         2.5775     
  337.4388         6.0051         2.5582     
  337.5912         6.0072         2.5392     
  337.7436         6.0093         2.5222     
  337.8960         6.0044         2.5158     
  338.0484         5.9994         2.5189     
  338.2008         5.9943         2.5271     
  338.3532         5.9893         2.5266     
  338.5056         5.9843         2.5173     
  338.6580         5.9793         2.5359     
  338.8104         5.9743         2.5462     
  338.9628         5.9692         2.5451     
  339.1152         5.9642         2.5571     
  339.2676         5.9592         2.5721     
  339.4200         5.9542         2.5760     
  339.5724         5.9492         2.5708     
  339.7248         5.9441         2.5366     
  339.8772         5.9434         2.5110     
  340.0296         5.9446         2.4892     
  340.1820         5.9458         2.4957     
  340.3344         5.9470         2.5092     
  340.4868         5.9482         2.5216     
  340.6392         5.9494         2.5239     
  340.7916         5.9506         2.5187     
  340.9440         5.9518         2.5038     
  341.0964         5.9530         2.5018     
  341.2488         5.9542         2.4999     
  341.4012         5.9555         2.4979     
  341.5536         5.9552         2.5015     
  341.7060         5.9541         2.5160     
  341.8584         5.9529         2.5247     
  342.0108         5.9517         2.5328     
  342.1632         5.9505         2.5436     
  342.3156         5.9493         2.5522     
  342.4680         5.9482         2.5536     
  342.6204         5.9470         2.5455     
  342.7728         5.9458         2.5273     
  342.9252         5.9446         2.5073     
  343.0776         5.9434         2.5039     
  343.2300         5.9439         2.5167     
  343.3824         5.9484         2.5209     
  343.5348         5.9529         2.5138     
  343.6872         5.9574         2.5071     
  343.8396         5.9620         2.5164     
  343.9920         5.9665         2.5259     
  344.1444         5.9710         2.5254     
  344.2968         5.9755         2.5348     
  344.4492         5.9800         2.5384     
  344.6016         5.9845         2.5274     
  344.7540         5.9891         2.5180     
  344.9064         5.9936         2.5210     
  345.0588         5.9981         2.5375     
