~Version Information Section
VERS.          2.0                                     : CWLS LOG ASCII Standard
WRAP.          NO                                      : One line per depth step
CREA.          11/11/14                                : LAS Creation Date
~Well Information Section
STRT.m         27.0000                                 : Start Depth
STOP.m         690.8544                                : Stop Depth
STEP.m         0.1524                                  : Step
NULL.          -999.2500                               : Null Value
COMP.          SVERIGES                                : Company
WELL.          GROTLINGBO-1                            : Well
FLD .          GROTLINGBO                              : Field
LOC .          GOTLAND                                 : Location
LOC1.                                                  : Location (UTM)
PROV.          SWEDEN                                  : Province
UWI .          Sc23427-2851                            : UWI Number
API .                                                  : API Number
SECT.                                                  : Section
TOWN.                                                  : Township
RNGE.                                                  : Range
PDAT.          GL                                      : Perm Datum
EPD .m         0                                       : Elevation
LMF .          GL                                      : Log Measured From
DMF .          GL                                      : Drill Measured From
APD .                                                  : Above Perm Datum
EKB .                                                  : Elev-Kelly Bushing
EDF .                                                  : Elev-Drill Floor
EGL .                                                  : Elev-Ground Level
LATI.                                                  : Latitude
LONG.                                                  : Longitude
SRVC.          SCHLUMBERGER                            : Service Company
DATE.          16-MAR-1974                             : Logging Date
PROJ.          GRIPEN                                  : Project
SET .          FDC                                     : Set
~Parameter Information Section
RUN .          1                                       : Run #
DATE.          16/03/1974                              : Date log was run
TDD .m         690.0                                   : Depth - Driller
TDL .m         690.6                                   : Depth - Logger
BLI .m         690.4                                   : Bottom Log Interval
TLI .m         27.3                                    : Top Log Interval
CBD .                                                  : Casing - Driller
CBL .m         27.3                                    : Casing - Logger
CSIZ.in        7                                       : Casing Size
BS1 .in        5 5/16                                  : Bit Size
BS2 .in        5 3/8                                   : Bit Size
BS3 .in        5 1/2                                   : Bit Size
BS4 .in        5 27/32                                 : Bit Size
DFT .          SHALE                                   : Type of Fluid In Hole
DFD .          1.22                                    : Drilling Fluid Density
DFV .                                                  : Drilling Fluid Viscosity
DFPH.                                                  : Drilling Fluid pH
DFL .                                                  : Drilling Fluid Loss
MSS .                                                  : Source of Sample
RMS .                                                  : Mud Resitivity
MST .                                                  : Rm Temperature
RMFS.                                                  : Mud Filtrate Resistivity
MFST.                                                  : Rmf Temperature
RMCS.                                                  : Mud Cake Resitivity
MCST.                                                  : Rmc Temperature
MFSS.                                                  : Source of Rmf
MCSS.                                                  : Source of Rmc
RMBH.                                                  : Rm at BHT
BHT .                                                  : Bottom Hole Temperature
MRT .degc      28                                      : Max Recorded Temperature
OS  .          IES,GRN,BHC                             : Other Services
R001.          Coming up strong dragging 137.0 > 70.0m : Remarks
~Curve Information Section
DEPTH.m                                                : Depth Curve
CAL.in                                                 : Caliper
DEN.g/cc                                               : Density
~ASCII Log Data Section
# ...
  530.8344         7.5460         2.5514     
  530.9868         7.5471         2.5456     
  531.1392         7.5482         2.5471     
  531.2916         7.5493         2.5385     
  531.4440         7.5504         2.5340     
  531.5964         7.5516         2.5378     
  531.7488         7.5527         2.5252     
  531.9012         7.5538         2.5153     
  532.0536         7.5549         2.5200     
  532.2060         7.5560         2.5173     
  532.3584         7.5572         2.5069     
  532.5108         7.5559         2.5092     
  532.6632         7.5441         2.5220     
  532.8156         7.5324         2.5293     
  532.9680         7.4597         2.5046     
  533.1204         7.3813         2.5312     
  533.2728         7.3525         2.5527     
  533.4252         7.3312         2.5588     
  533.5776         7.3208         2.5387     
  533.7300         7.3290         2.5334     
  533.8824         7.3372         2.5407     
  534.0348         7.3454         2.5433     
  534.1872         7.3536         2.5530     
  534.3396         7.3531         2.5716     
  534.4920         7.3436         2.5708     
  534.6444         7.3341         2.5515     
  534.7968         7.3245         2.5505     
  534.9492         7.3092         2.5502     
  535.1016         7.2799         2.5466     
  535.2540         7.2505         2.5408     
  535.4064         7.2211         2.5354     
  535.5588         7.1918         2.5416     
  535.7112         7.1697         2.5519     
  535.8636         7.1657         2.5623     
  536.0160         7.1617         2.5707     
  536.1684         7.1577         2.5801     
  536.3208         7.1537         2.5592     
  536.4732         7.1497         2.5372     
  536.6256         7.1456         2.5247     
  536.7780         7.1235         2.4799     
  536.9304         7.0911         2.4711     
  537.0828         7.0586         2.4973     
  537.2352         7.0470         2.5099     
  537.3876         7.0421         2.5100     
  537.5400         7.0372         2.4999     
  537.6924         7.0323         2.4922     
  537.8448         7.0274         2.4932     
  537.9972         7.0225         2.4678     
  538.1496         7.0177         2.4866     
  538.3020         7.0128         2.5053     
  538.4544         7.0079         2.5124     
  538.6068         7.0030         2.5122     
  538.7592         6.9981         2.5162     
  538.9116         6.9932         2.5087     
  539.0640         6.9883         2.5001     
  539.2164         6.9834         2.4954     
  539.3688         6.9790         2.5001     
  539.5212         6.9745         2.5166     
  539.6736         6.9731         2.5008     
  539.8260         6.9924         2.4792     
  539.9784         7.0117         2.4585     
  540.1308         7.0310         2.4846     
  540.2832         7.0503         2.4795     
  540.4356         7.0696         2.5000     
  540.5880         7.0889         2.4921     
  540.7404         7.1082         2.4836     
  540.8928         7.1339         2.4895     
  541.0452         7.1655         2.5057     
  541.1976         7.1972         2.5274     
  541.3500         7.2288         2.5282     
  541.5024         7.2604         2.5140     
  541.6548         7.2856         2.5207     
  541.8072         7.3029         2.5104     
  541.9596         7.3202         2.4906     
  542.1120         7.3375         2.4837     
  542.2644         7.3760         2.4707     
  542.4168         7.4284         2.4658     
  542.5692         7.4809         2.4831     
  542.7216         7.5333         2.4989     
  542.8740         7.5706         2.5104     
  543.0264         7.5944         2.5315     
  543.1788         7.6182         2.5404     
  543.3312         7.6420         2.5338     
  543.4836         7.6657         2.5200     
  543.6360         7.6895         2.4956     
  543.7884         7.6963         2.4699     
  543.9408         7.7015         2.4739     
  544.0932         7.7066         2.4859     
  544.2456         7.7118         2.5086     
  544.3980         7.7169         2.5223     
  544.5504         7.7662         2.5117     
  544.7028         7.8312         2.4931     
  544.8552         7.8962         2.5064     
  545.0076         7.9376         2.5221     
  545.1600         7.9725         2.5388     
  545.3124         8.0073         2.5445     
  545.4648         8.0422         2.5465     
  545.6172         8.0771         2.5561     
  545.7696         8.1120         2.5412     
  545.9220         8.1468         2.5226     
  546.0744         8.1727         2.5130     
  546.2268         8.1937         2.5086     
  546.3792         8.2148         2.5153     
  546.5316         8.2359         2.5294     
  546.6840         8.2569         2.5288     
  546.8364         8.2780         2.5313     
  546.9888         8.2955         2.5408     
  547.1412         8.3053         2.5400     
  547.2936         8.3152         2.5261     
  547.4460         8.3250         2.5351     
  547.5984         8.3349         2.5441     
  547.7508         8.3447         2.5349     
  547.9032         8.3545         2.5153     
  548.0556         8.3601         2.5153     
  548.2080         8.3620         2.5347     
  548.3604         8.3638         2.5427     
  548.5128         8.3657         2.5311     
  548.6652         8.3675         2.5168     
  548.8176         8.3694         2.5173     
  548.9700         8.3712         2.5088     
  549.1224         8.3712         2.5194     
  549.2748         8.3667         2.5378     
  549.4272         8.3623         2.5400     
  549.5796         8.3574         2.5320     
  549.7320         8.3514         2.5272     
  549.8844         8.3455         2.5101     
  550.0368         8.3395         2.5122     
  550.1892         8.3336         2.5194     
  550.3416         8.3276         2.5362     
  550.4940         8.3217         2.5650     
  550.6464         8.2913         2.5835     
  550.7988         8.2421         2.5449     
  550.9512         8.1929         2.5169     
  551.1036         8.1437         2.5019     
  551.2560         8.0945         2.5103     
  551.4084         8.0609         2.5210     
  551.5608         8.0498         2.5254     
  551.7132         8.0388         2.5547     
  551.8656         8.0277         2.5480     
  552.0180         7.9632         2.5364     
  552.1704         7.8843         2.5426     
  552.3228         7.8054         2.5614     
  552.4752         7.7264         2.5527     
  552.6276         7.7081         2.5379     
  552.7800         7.7124         2.5307     
  552.9324         7.7168         2.5494     
  553.0848         7.6822         2.5588     
  553.2372         7.6271         2.5578     
  553.3896         7.5720         2.5565     
  553.5420         7.5169         2.5491     
  553.6944         7.4618         2.5427     
  553.8468         7.4067         2.5512     
  553.9992         7.3839         2.5624     
  554.1516         7.3673         2.5604     
  554.3040         7.3541         2.5374     
  554.4564         7.3454         2.5107     
  554.6088         7.3367         2.4785     
  554.7612         7.3280         2.4538     
  554.9136         7.3193         2.4607     
  555.0660         7.3178         2.4923     
  555.2184         7.3324         2.5117     
  555.3708         7.4202         2.5265     
  555.5232         7.5419         2.5375     
  555.6756         7.6527         2.5375     
  555.8280         7.7002         2.5320     
  555.9804         7.7198         2.5482     
  556.1328         7.7393         2.5775     
  556.2852         7.7589         2.5497     
  556.4376         7.7784         2.5297     
  556.5900         7.7980         2.5166     
  556.7424         7.8222         2.5171     
  556.8948         7.8575         2.5046     
  557.0472         7.8928         2.5106     
  557.1996         7.9282         2.5361     
