~Version Information Block
 VERS.                2.00:     CWLS LOG ASCII STANDARD - VERSION 2.000000
 WRAP.                  NO:     One Line Per Depth Step
#
~Well Information Block
#MNEM.UNIT                     Data                         Information
#----------   ------------------------------------------   ----------------
 STRT.M                                        350.0000:     START DEPTH
 STOP.M                                        665.0000:     STOP DEPTH
 STEP.M                                          0.1000:     STEP LENGTH OR LOG DEPTH INCREMENT
 NULL.                                        -999.2500:     NO VALUE
 COMP.                                             OPAB:     COMPANY
 WELL.                                     GRÖTLINGBO-2:     WELL
 FLD.                                        GRÖTLINGBO:     FIELD
 LOC.                                                  :     FIELD LOCATION
 PROV.                                                 :     PROVINCE
 STAT.                                                 :     STATE
 CTRY.                                                 :     COUNTRY
 LCC.                                                  :     SERVICE COMPANY
 DATE.                                                 :     LOG DATE
 WN.                                       GRÖTLINGBO-2:     WELL_NAME
 UWI.                                                  :     UNIQUE WELL ID
 API.                                                  :     API NUMBER
#
~CURVE INFORMATION BLOCK
#MNEM.UNIT       API CODE      Curve Description
#----------    -------------   -------------------
 DEPT.M                                               :    1 DEPTH
 SP  .MV       01 010 01 01                           :    2 Spontaneous Potential
 LLD .OHMM     10 220 10 01                           :    3 Latero-Log Deep (Resistivity)
~PARAMETER INFORMATION BLOCK
#MNEM.UNIT                               Value            Description
#----------                       --------------------    -------------------------------------------------
 FTYP.                                             DLL:    Log File Type
 RUN.                                                1:    Run Number
~OTHER INFORMATION BLOCK
 DIGITISED FROM HARDCOPY BY UKOGL
#
~A    DEPT             SP                LLD        
# ...
     397.1000       -7.06283630       16.43639673 
     397.2000       -7.69767999       16.03787261 
     397.3000       -8.11719664       15.74533363 
     397.4000       -7.98752607       15.84224887 
     397.5000       -8.50230611       16.23591195 
     397.6000       -9.30108204       16.13658847 
     397.7000       -8.38024400       15.74533363 
     397.8000       -8.69254300       15.17616653 
     397.9000       -8.56153922       14.89934552 
     398.0000       -7.43140319       14.71760909 
     398.1000       -8.05921489       14.36075946 
     398.2000       -9.80992956       14.09881188 
     398.3000       -8.88580480       13.75696587 
     398.4000       -7.90312087       14.19102752 
     398.5000       -7.80787173       14.26641543 
     398.6000       -8.44304250       14.09142070 
     398.7000       -9.60284748       14.09322081 
     398.8000       -8.91799104       14.01528156 
     398.9000       -8.44170294       13.84271247 
     399.0000       -8.80980199       13.50517380 
     399.1000       -8.89752411       13.22552934 
     399.2000       -9.77728783       13.00755910 
     399.3000       -9.23352893       13.08946305 
     399.4000       -8.72639984       13.09793854 
     399.5000       -8.66888060       12.93817497 
     399.6000       -8.13001140       12.58579583 
     399.7000       -7.96251452       12.16811709 
     399.8000       -7.88915590       11.72826031 
     399.9000       -8.03617398       11.80044977 
     400.0000       -7.90699421       11.64473350 
     400.1000       -7.62163124       11.91801620 
     400.2000       -7.33602219       12.31837181 
     400.3000       -7.17596990       12.47048190 
     400.4000       -7.71530608       12.01969513 
     400.5000       -8.37783196       11.58520354 
     400.6000       -8.37810273       11.37388353 
     400.7000       -8.01225932       11.80044977 
     400.8000       -8.83406050       12.24301395 
     400.9000       -9.10452610       13.84164236 
     401.0000       -9.16022207       16.47847498 
     401.1000       -8.70611938       20.62577532 
     401.2000      -10.49023783       26.52612463 
     401.3000      -11.63053795       33.69825412 
     401.4000      -11.31283485       40.50681853 
     401.5000      -10.84575543       39.79261825 
     401.6000      -12.70724348       37.62251679 
     401.7000      -13.61794320       37.61893288 
     401.8000      -12.29844311       39.04650654 
     401.9000      -13.42638264       40.01437243 
     402.0000      -14.95658663       40.50783642 
     402.1000      -16.49701351       38.81999031 
     402.2000      -15.26248480       34.52331070 
     402.3000      -17.71890213       31.32205305 
     402.4000      -15.09133269       30.52656757 
     402.5000      -16.71163625       31.21976714 
     402.6000      -15.63412411       31.67923021 
     402.7000      -16.92695941       30.91968503 
     402.8000      -15.21688316       33.28721592 
     402.9000      -14.02408803       34.74819267 
     403.0000      -13.99898066       33.65823304 
     403.1000      -14.17703405       30.75935466 
     403.2000      -14.10742747       28.00818061 
     403.3000      -15.85377200       26.51566725 
     403.4000      -17.40408857       26.20256927 
     403.5000      -14.54169985       28.11842324 
     403.6000      -14.88298884       29.26262147 
     403.7000      -14.77487642       29.08687683 
     403.8000      -14.10240385       27.88384840 
     403.9000      -13.62885859       27.49378517 
     404.0000      -13.76927651       27.71252076 
     404.1000      -13.85995276       28.21332831 
     404.2000      -12.49000403       28.20130607 
     404.3000      -10.92495804       26.36045065 
     404.4000      -11.83369069       26.85308380 
     404.5000      -13.77271367       27.17672400 
     404.6000      -13.42327642       26.85367532 
     404.7000      -12.58940368       27.18527069 
     404.8000      -12.54584653       26.20256927 
     404.9000      -13.31189123       26.93619304 
     405.0000      -13.02681632       27.72679155 
     405.1000      -11.78804150       27.94640828 
     405.2000      -12.04158365       28.03228382 
     405.3000      -12.17878321       27.10198994 
     405.4000      -11.81174589       26.68939749 
     405.5000      -11.64591805       27.10198994 
     405.6000      -11.86586812       26.68939749 
     405.7000      -12.08322437       26.28308623 
     405.8000      -13.17373989       25.88296052 
     405.9000      -12.03015192       25.88296052 
     406.0000      -11.19080263       26.52612463 
     406.1000      -12.10819906       26.85367532 
     406.2000      -13.20990276       25.41084212 
     406.3000      -10.23068596       24.49228329 
     406.4000      -11.69528903       23.27286668 
     406.5000      -11.12593387       22.59622272 
     406.6000      -11.25162657       22.19836062 
     406.7000      -11.64470953       22.47608096 
     406.8000      -11.98668971       22.20188508 
     406.9000      -13.01558523       22.75357837 
     407.0000      -14.38787092       22.89363056 
     407.1000      -14.60206474       22.61438296 
     407.2000      -12.53177088       21.93107512 
     407.3000      -13.45294215       20.75273052 
     407.4000      -13.70431041       20.75273052 
     407.5000      -14.27586836       21.26841385 
     407.6000      -14.65887325       22.06606466 
     407.7000      -14.89302183       22.75357837 
     407.8000      -14.33077356       24.49228329 
     407.9000      -14.96857701       25.56725023 
     408.0000      -15.15055501       24.93814500 
     408.1000      -13.63467656       24.35244905 
     408.2000      -14.60789517       23.16728235 
     408.3000      -13.19182322       23.31898066 
     408.4000      -15.72576379       23.60692880 
     408.5000      -15.60240911       22.75357837 
     408.6000      -13.90639363       23.45999486 
     408.7000      -14.18819488       24.79705686 
     408.8000      -14.55620678       25.73245116 
     408.9000      -13.68482591       27.18527069 
     409.0000      -12.95013758       27.69035692 
     409.1000      -14.42093694       27.69035692 
     409.2000      -14.49801190       27.35260071 
     409.3000      -14.63377109       26.68939749 
     409.4000      -15.89928608       25.25539085 
     409.5000      -14.76753988       23.89464882 
     409.6000      -15.15876210       23.90018108 
     409.7000      -14.38312179       24.50286528 
     409.8000      -14.22607064       24.64408539 
     409.9000      -13.17699792       24.49228329 
     410.0000      -15.76918566       23.17632638 
     410.1000      -14.17221133       23.10532684 
     410.2000      -12.83689038       22.87337433 
     410.3000      -13.50408714       22.73654994 
     410.4000      -13.03548443       23.53847968 
     410.5000      -13.87451244       24.49228329 
     410.6000      -14.34956547       24.64303751 
     410.7000      -13.05796903       24.49228329 
     410.8000      -14.69703001       24.71876223 
     410.9000      -16.29052583       26.77141040 
     411.0000      -15.67748326       28.20482735 
     411.1000      -13.09144623       28.55310705 
     411.2000      -14.21463378       30.54695867 
     411.3000      -16.05100889       32.48011940 
     411.4000      -13.35242838       33.91412456 
     411.5000      -14.53586371       34.75152979 
     411.6000      -15.52530553       35.61638089 
     411.7000      -13.85518710       34.74819267 
     411.8000      -14.02141968       33.69825412 
     411.9000      -11.96141353       32.48011940 
     412.0000      -13.26490384       31.11450307 
     412.1000      -11.38596769       30.64082534 
     412.2000      -12.52824989       29.17297686 
     412.3000      -11.34192810       28.20482735 
     412.4000       -9.26386215       27.26880735 
     412.5000      -10.50680599       26.12229898 
     412.6000      -11.01576359       24.93150700 
     412.7000       -9.87432190       26.68889580 
