~Version Information Block
 VERS.                2.00:     CWLS LOG ASCII STANDARD - VERSION 2.000000
 WRAP.                  NO:     One Line Per Depth Step
#
~Well Information Block
#MNEM.UNIT                     Data                         Information
#----------   ------------------------------------------   ----------------
 STRT.M                                        350.0000:     START DEPTH
 STOP.M                                        665.0000:     STOP DEPTH
 STEP.M                                          0.1000:     STEP LENGTH OR LOG DEPTH INCREMENT
 NULL.                                        -999.2500:     NO VALUE
 COMP.                                             OPAB:     COMPANY
 WELL.                                     GRÖTLINGBO-2:     WELL
 FLD.                                        GRÖTLINGBO:     FIELD
 LOC.                                                  :     FIELD LOCATION
 PROV.                                                 :     PROVINCE
 STAT.                                                 :     STATE
 CTRY.                                                 :     COUNTRY
 LCC.                                                  :     SERVICE COMPANY
 DATE.                                                 :     LOG DATE
 WN.                                       GRÖTLINGBO-2:     WELL_NAME
 UWI.                                                  :     UNIQUE WELL ID
 API.                                                  :     API NUMBER
#
~CURVE INFORMATION BLOCK
#MNEM.UNIT       API CODE      Curve Description
#----------    -------------   -------------------
 DEPT.M                                               :    1 DEPTH
 SP  .MV       01 010 01 01                           :    2 Spontaneous Potential
 LLD .OHMM     10 220 10 01                           :    3 Latero-Log Deep (Resistivity)
~PARAMETER INFORMATION BLOCK
#MNEM.UNIT                               Value            Description
#----------                       --------------------    -------------------------------------------------
 FTYP.                                             DLL:    Log File Type
 RUN.                                                1:    Run Number
~OTHER INFORMATION BLOCK
 DIGITISED FROM HARDCOPY BY UKOGL
#
~A    DEPT             SP                LLD        
# ...
     648.3000      -23.64981437        8.84392912 
     648.4000      -25.05299130        8.16583728 
     648.5000      -26.54948078        7.40220823 
     648.6000      -27.94247664        7.00449165 
     648.7000      -28.70723794        6.79284652 
     648.8000      -28.87899196        6.75129116 
     648.9000      -27.83878579        7.04760550 
     649.0000      -27.42805546        7.26718818 
     649.1000      -27.52694896        7.22273103 
     649.2000      -26.85198486        7.28951926 
     649.3000      -25.27995690        7.60945645 
     649.4000      -24.79931037        8.04152306 
     649.5000      -25.79736563        8.16583728 
     649.6000      -24.64661942        7.96784479 
     649.7000      -22.93090095        8.11588263 
     649.8000      -22.76010510        7.96784479 
     649.9000      -23.05473203        7.79854337 
     650.0000      -24.02429561        7.60945645 
     650.1000      -24.22151323        7.26614425 
     650.2000      -23.99109847        7.26530368 
     650.3000      -22.86809363        7.49083793 
     650.4000      -21.76584547        7.53973687 
     650.5000      -19.79343729        8.06623357 
     650.6000      -17.06502314        8.49030404 
     650.7000      -13.68809370        8.73605431 
     650.8000      -10.69919692        8.95313599 
     650.9000       -9.36851982        8.95313599 
     651.0000       -8.61852563        8.84392912 
     651.1000       -8.34226582        8.62949532 
     651.2000       -8.11148304        8.31755370 
     651.3000       -7.67778508        8.21609942 
     651.4000       -8.85065307        8.31755370 
     651.5000       -9.38909425        8.95313599 
     651.6000      -10.30446402        9.34608936 
     651.7000      -12.50703526        9.34608936 
     651.8000      -14.37740478        9.17561193 
     651.9000      -16.01054872        9.87676237 
     652.0000      -16.55827838       10.24718056 
     652.1000      -16.57071585       10.31025372 
     652.2000      -16.51126208       10.37371511 
     652.3000      -16.14198841       10.31541536 
     652.4000      -16.27125251       10.17303503 
     652.5000      -14.63961524       10.17140460 
     652.6000      -14.97709700        9.87893176 
     652.7000      -15.23633396        9.47533863 
     652.8000      -15.46137908        9.16982988 
     652.9000      -14.08157347        9.23716717 
     653.0000      -13.39515936        9.28486278 
     653.1000      -13.78259602        8.84348053 
     653.2000      -12.05923815        8.89836503 
     653.3000      -13.04002416        8.69327372 
     653.4000      -13.32537241        8.47208892 
     653.5000      -14.06274796        8.42026077 
     653.6000      -15.00516167        8.68261135 
     653.7000      -14.53585450        8.73605431 
     653.8000      -14.13680609        8.79380549 
     653.9000      -13.90159140        8.73265613 
     654.0000      -12.18242333        8.58226922 
     654.1000      -10.39640208        8.26667092 
     654.2000       -9.57604043        8.06623357 
     654.3000      -10.23966159        7.77465291 
     654.4000      -11.13385698        7.82250724 
     654.5000      -11.95923276        7.44777009 
     654.6000      -12.41573443        7.53973687 
     654.7000      -14.73789175        7.40220823 
     654.8000      -18.72097532        6.96747681 
     654.9000      -20.15629645        6.58094114 
     655.0000      -23.02320149        6.23874676 
     655.1000      -25.83633084        6.15761283 
     655.2000      -27.40973500        6.19551400 
     655.3000      -28.47239383        6.00831264 
     655.4000      -27.56738122        5.89871795 
     655.5000      -27.25385946        5.89871795 
     655.6000      -26.21810312        6.31062298 
     655.7000      -26.08909046        6.96164155 
     655.8000      -26.59574841        7.13463096 
     655.9000      -25.52424298        7.09098473 
     656.0000      -23.54815835        7.35200906 
     656.1000      -23.73669007        7.49699563 
     656.2000      -26.00272279        7.26313278 
     656.3000      -26.45456380        7.31191897 
     656.4000      -24.04854904        7.35692509 
     656.5000      -23.54017310        7.58614525 
     656.6000      -24.21076419        7.55292207 
     656.7000      -22.80602989        7.37764688 
     656.8000      -21.46147563        7.25287019 
     656.9000      -22.58808213        7.26718818 
     657.0000      -26.20981222        7.22273103 
     657.1000      -26.59692459        7.22273103 
     657.2000      -25.24352317        7.13463096 
     657.3000      -24.49019244        7.67982072 
     657.4000      -24.73674482        8.16583728 
     657.5000      -22.20891686        9.51973417 
     657.6000      -20.64507492       10.50181213 
     657.7000      -20.65156533       11.09810733 
     657.8000      -21.15326412       11.09810733 
     657.9000      -19.52719026       10.57525859 
     658.0000      -18.67045254       10.16199595 
     658.1000      -20.89286123        9.34857639 
     658.2000      -22.34945468        8.84392912 
     658.3000      -22.98045636        8.73605431 
     658.4000      -23.26147720        9.00824409 
     658.5000      -21.73479800        9.60776268 
     658.6000      -22.02448359        9.96809231 
     658.7000      -21.35070653       10.61700345 
     658.8000      -22.89533507       11.37388353 
     658.9000      -24.24456648       12.43227918 
     659.0000      -24.87259668       13.38516742 
     659.1000      -24.91259071       14.45410546 
     659.2000      -25.72683793       15.92811979 
     659.3000      -27.61206169       17.69842515 
     659.4000      -28.61173992       19.89163885 
     659.5000      -29.13954684       19.88847581 
     659.6000      -27.99333659       19.04534125 
     659.7000      -27.78243034       18.49246495 
     659.8000      -26.07300649       17.87580366 
     659.9000      -24.58740179       15.68519516 
     660.0000      -26.55895934       12.99785666 
     660.1000      -25.37571965       10.89567220 
     660.2000      -29.07161939        9.99872291 
     660.3000      -31.69878444       11.87308356 
     660.4000      -29.49714380       13.25967490 
     660.5000      -32.15335433       15.45813072 
     660.6000      -28.51264926       18.11533628 
     660.7000      -32.50428563       21.16339591 
     660.8000      -34.98765442       24.81878003 
     660.9000      -33.71443962       24.82117795 
     661.0000      -35.60605389       22.72566571 
     661.1000      -36.58094272       21.54259077 
     661.2000      -34.61995698       21.67524429 
     661.3000      -37.15621301       20.49959678 
     661.4000      -34.94466575       19.63769772 
     661.5000      -36.91678485       18.69695397 
     661.6000      -35.27708611       17.69237692 
     661.7000      -37.05719343       17.05282751 
     661.8000      -35.98044027       18.13201372 
     661.9000      -34.59030907       20.49959678 
     662.0000      -35.21846445       22.06606466 
     662.1000      -34.32271693       19.81928655 
     662.2000      -34.43088843       17.51861367 
     662.3000      -35.51222334       14.94147451 
     662.4000      -36.43829065       14.09303886 
     662.5000      -33.73460934       13.58916375 
     662.6000      -34.54872131       13.34129048 
     662.7000      -33.81640173       13.50603180 
     662.8000      -34.58999439       13.25967490 
     662.9000      -34.50595566       13.17855860 
     663.0000      -33.21430106       13.34129048 
     663.1000      -34.71252484       13.25967490 
     663.2000      -35.02999777       13.50603180 
     663.3000      -34.01925217       12.93817497 
     663.4000      -34.97450852       13.75696587 
     663.5000      -34.98101061       13.42921896 
     663.6000      -35.80161533       13.34266080 
     663.7000      -34.61946143       13.41502636 
     663.8000      -35.31615931       13.51387686 
     663.9000      -32.92347043       13.58349245 
