~Version Information Block
 VERS.                2.00:     CWLS LOG ASCII STANDARD - VERSION 2.000000
 WRAP.                  NO:     One Line Per Depth Step
#
~Well Information Block
#MNEM.UNIT                     Data                         Information
#----------   ------------------------------------------   ----------------
 STRT.M                                        348.0000:     START DEPTH
 STOP.M                                        673.1000:     STOP DEPTH
 STEP.M                                          0.1000:     STEP LENGTH OR LOG DEPTH INCREMENT
 NULL.                                        -999.2500:     NO VALUE
 COMP.                                             OPAB:     COMPANY
 WELL.                                     GRÖTLINGBO-2:     WELL
 FLD.                                        GRÖTLINGBO:     FIELD
 LOC.                                                  :     FIELD LOCATION
 PROV.                                                 :     PROVINCE
 STAT.                                                 :     STATE
 CTRY.                                                 :     COUNTRY
 LCC.                                                  :     SERVICE COMPANY
 DATE.                                                 :     LOG DATE
 WN.                                       GRÖTLINGBO-2:     WELL_NAME
 UWI.                                                  :     UNIQUE WELL ID
 API.                                                  :     API NUMBER
#
~CURVE INFORMATION BLOCK
#MNEM.UNIT       API CODE      Curve Description
#----------    -------------   -------------------
 DEPT.M                                               :    1 DEPTH
 CALI.IN       70 280 01 01                           :    2 Caliper
 GR  .GAPI     35 310 01 01                           :    3 Gamma Ray
 RHOB.G/C3     42 350 01 01                           :    4 Bulk Density
 DRHO.G/C3                                            :    5 Delta Rho
~PARAMETER INFORMATION BLOCK
#MNEM.UNIT                               Value            Description
#----------                       --------------------    -------------------------------------------------
 FTYP.                                            CFDL:    Log File Type
 RUN.                                                1:    Run Number
~OTHER INFORMATION BLOCK
 DIGITISED FROM HARDCOPY BY UKOGL
#
~A    DEPT             CALI              GR                RHOB              DRHO       
# ...
     476.8000        6.31994263       21.71390687        2.71666667        0.02345457 
     476.9000        6.32037123       23.10757696        2.70292308        0.02243392 
     477.0000        6.32079983       24.64128490        2.70060272        0.02831016 
     477.1000        6.32122843       24.99175359        2.69748534        0.03061815 
     477.2000        6.32165703       25.24504615        2.70579056        0.02548970 
     477.3000        6.32208563       25.23675659        2.70630357        0.02851530 
     477.4000        6.32251418       24.63815543        2.70641172        0.03731647 
     477.5000        6.32294631       23.67510466        2.70833507        0.04018852 
     477.6000        6.32338056       23.16785812        2.71688403        0.02891728 
     477.7000        6.32381820       23.97729434        2.72324758        0.03255168 
     477.8000        6.32426306       26.26291489        2.71597052        0.01515632 
     477.9000        6.32477364       28.00620873        2.70155650        0.01443306 
     478.0000        6.32252490       29.77379592        2.68969179        0.01048758 
     478.1000        6.31916100       31.52738178        2.68189764        0.01635194 
     478.2000        6.31578613       33.27115328        2.67679095        0.01496767 
     478.3000        6.31240717       34.31469205        2.67512179        0.01441514 
     478.4000        6.30902628       35.10618245        2.67187956        0.01650688 
     478.5000        6.30564698       34.94333050        2.66495449        0.01856028 
     478.6000        6.30226918       33.40419199        2.66184114        0.01383872 
     478.7000        6.29889372       33.84154270        2.67045303        0.01255736 
     478.8000        6.29551861       36.60824401        2.67317324        0.01311361 
     478.9000        6.29214452       42.01775842        2.67401357        0.01662262 
     479.0000        6.28877223       48.48682588        2.67987487        0.02143201 
     479.1000        6.28537659       55.79167045        2.68440245        0.02587003 
     479.2000        6.27959436       65.12184089        2.68576336        0.02904080 
     479.3000        6.27339900       81.85366869        2.68487767        0.02995730 
     479.4000        6.26720165       95.72794081        2.67727727        0.02233752 
     479.5000        6.26098287      106.67106517        2.66008684        0.02431293 
     479.6000        6.25471953      111.30134551        2.64321023        0.03161301 
     479.7000        6.24829186       99.31705156        2.61886183        0.03880475 
     479.8000        6.23401935       77.57894711        2.59118657        0.04169752 
     479.9000        6.20515217       56.12140720        2.57212434        0.02893841 
     480.0000        6.17699185       43.93098480        2.53795809        0.02987042 
     480.1000        6.14551479       35.58747379        2.49892904        0.04290517 
     480.2000        6.10224235       31.29499606        2.47155548        0.05893138 
     480.3000        6.09822430       28.95586005        2.46086337        0.06840079 
     480.4000        6.09349770       27.61278226        2.46095791        0.07815807 
     480.5000        6.08860865       27.97062191        2.45501509        0.07950154 
     480.6000        6.08364290       31.52419536        2.44289168        0.07411499 
     480.7000        6.07880343       38.24535939        2.43881105        0.09127150 
     480.8000        6.07396980       47.52784944        2.46641259        0.09546597 
     480.9000        6.06945230       54.15300393        2.48729806        0.08157917 
     481.0000        6.09248753       54.78868536        2.49254578        0.05281447 
     481.1000        6.16063675       41.44985931        2.47541126        0.06424719 
     481.2000        6.10744863       29.61912530        2.46407140        0.08061053 
     481.3000        6.06329492       22.40204298        2.46957196        0.08584468 
     481.4000        6.07002386       22.63304502        2.47715468        0.07656452 
     481.5000        6.10689160       22.60889689        2.47259353        0.06880517 
     481.6000        6.16467650       22.88412467        2.48645491        0.04448229 
     481.7000        6.16544895       23.36788762        2.49919368        0.02781921 
     481.8000        6.16519155       22.39663824        2.50397424        0.03973331 
     481.9000        6.16404825       21.48663978        2.50210534        0.06206473 
     482.0000        6.09960683       20.70212690        2.50188142        0.06748335 
     482.1000        6.08821996       20.10246322        2.49472733        0.06958727 
     482.2000        6.08675764       16.87037254        2.45416555        0.07057665 
     482.3000        6.08607753       15.32210407        2.43625144        0.07144181 
     482.4000        6.08574226       12.54975843        2.42824862        0.07210104 
     482.5000        6.08565737       11.41742609        2.43864005        0.07551849 
     482.6000        6.08565737       10.88755569        2.44607409        0.09051199 
     482.7000        6.08565737       11.15169964        2.44839359        0.09337802 
     482.8000        6.08565737       11.21875550        2.46365053        0.08421285 
     482.9000        6.08565737       10.86173277        2.46583769        0.06491144 
     483.0000        6.08565737       10.69283272        2.43678547        0.05906284 
     483.1000        6.08565737       10.28540005        2.39921793        0.04879768 
     483.2000        6.08565737       10.29545739        2.39596452        0.03933535 
     483.3000        6.08565737       11.51342558        2.39269695        0.03346672 
     483.4000        6.08565737       12.03420781        2.38905336        0.04063347 
     483.5000        6.08565737       12.41988040        2.39152609        0.05309269 
     483.6000        6.08565737       12.38666301        2.40180277        0.05925738 
     483.7000        6.08565737       12.34758527        2.41814810        0.04367175 
     483.8000        6.08565737       12.93919800        2.40290804        0.04996989 
     483.9000        6.08565737       15.78893480        2.41124888        0.06382576 
     484.0000        6.08565737       17.49614107        2.42331795        0.06949444 
     484.1000        6.08561373       20.73682231        2.44841594        0.07272742 
     484.2000        6.08556824       27.30246477        2.46035188        0.07636292 
     484.3000        6.08550992       33.83095487        2.47353807        0.07910616 
     484.4000        6.08545376       42.97656178        2.50015522        0.06708901 
     484.5000        6.08607083       52.54803675        2.52164673        0.06511220 
     484.6000        6.13412265       60.24009844        2.54184707        0.04540845 
     484.7000        6.18914644       63.88409293        2.54610973        0.03934209 
     484.8000        6.24427449       63.64115415        2.56696208        0.03875836 
     484.9000        6.28718555       61.15547227        2.57538116        0.04900219 
     485.0000        6.29552255       57.78452767        2.59357274        0.06156987 
     485.1000        6.30344713       52.29362760        2.59394880        0.07421166 
     485.2000        6.25510109       46.45462657        2.59307076        0.08744850 
     485.3000        6.19691536       42.03369147        2.57560651        0.07573587 
     485.4000        6.18557008       39.14197215        2.55285758        0.07310380 
     485.5000        6.18526478       33.21933950        2.53015007        0.06552407 
     485.6000        6.18492329       23.06626634        2.50439193        0.05920007 
     485.7000        6.16481625       17.00443479        2.48255987        0.05939097 
     485.8000        6.12439430       13.69598780        2.46487595        0.06037027 
     485.9000        6.12522975       12.16570034        2.45430563        0.06687990 
