~Version Information Block
 VERS.                2.00:     CWLS LOG ASCII STANDARD - VERSION 2.000000
 WRAP.                  NO:     One Line Per Depth Step
#
~Well Information Block
#MNEM.UNIT                     Data                         Information
#----------   ------------------------------------------   ----------------
 STRT.M                                        350.0000:     START DEPTH
 STOP.M                                        665.0000:     STOP DEPTH
 STEP.M                                          0.1000:     STEP LENGTH OR LOG DEPTH INCREMENT
 NULL.                                        -999.2500:     NO VALUE
 COMP.                                             OPAB:     COMPANY
 WELL.                                     GRÖTLINGBO-2:     WELL
 FLD.                                        GRÖTLINGBO:     FIELD
 LOC.                                                  :     FIELD LOCATION
 PROV.                                                 :     PROVINCE
 STAT.                                                 :     STATE
 CTRY.                                                 :     COUNTRY
 LCC.                                                  :     SERVICE COMPANY
 DATE.                                                 :     LOG DATE
 WN.                                       GRÖTLINGBO-2:     WELL_NAME
 UWI.                                                  :     UNIQUE WELL ID
 API.                                                  :     API NUMBER
#
~CURVE INFORMATION BLOCK
#MNEM.UNIT       API CODE      Curve Description
#----------    -------------   -------------------
 DEPT.M                                               :    1 DEPTH
 SP  .MV       01 010 01 01                           :    2 Spontaneous Potential
 LLD .OHMM     10 220 10 01                           :    3 Latero-Log Deep (Resistivity)
~PARAMETER INFORMATION BLOCK
#MNEM.UNIT                               Value            Description
#----------                       --------------------    -------------------------------------------------
 FTYP.                                             DLL:    Log File Type
 RUN.                                                1:    Run Number
~OTHER INFORMATION BLOCK
 DIGITISED FROM HARDCOPY BY UKOGL
#
~A    DEPT             SP                LLD        
# ...
     412.8000      -10.43889109       26.68175929 
     412.9000       -7.93256138       29.71340517 
     413.0000       -8.81327517       31.49871212 
     413.1000       -8.49009241       34.85496917 
     413.2000       -8.87453418       37.86532743 
     413.3000       -6.67362116       36.83404198 
     413.4000       -8.64674483       35.39379351 
     413.5000       -7.75575051       35.72107818 
     413.6000       -8.03828294       38.68735963 
     413.7000       -9.17025850       41.38888190 
     413.8000       -8.46296496       47.80907574 
     413.9000      -10.54470992       61.29730618 
     414.0000       -8.04739620       73.91333367 
     414.1000       -9.47008125       69.51413943 
     414.2000       -9.03145291       62.32456853 
     414.3000      -10.85354652       55.36326579 
     414.4000       -8.93376972       52.06950562 
     414.5000      -11.49630163       51.77914556 
     414.6000      -12.18018272       55.39486182 
     414.7000      -10.02882652       54.71917683 
     414.8000      -13.06741352       55.73582673 
     414.9000      -11.32601293       56.45968928 
     415.0000       -9.75969362       55.71911890 
     415.1000      -12.10748532       58.54019425 
     415.2000      -11.59343581       61.86411935 
     415.3000      -11.96121884       67.41372588 
     415.4000      -10.06844259       68.24616609 
     415.5000       -8.65042592       59.26306205 
     415.6000      -12.80734420       46.93701382 
     415.7000      -13.70070948       37.86532743 
     415.8000      -12.25797459       31.11450307 
     415.9000      -12.52733025       26.04227459 
     416.0000      -13.93596306       22.89363056 
     416.1000      -13.23853168       22.62289762 
     416.2000      -11.18971469       21.79051696 
     416.3000      -11.33988223       19.30731472 
     416.4000      -12.34762960       16.63935714 
     416.5000      -12.88166926       14.36075946 
     416.6000      -12.66031982       12.58579583 
     416.7000      -11.84791847       11.20073098 
     416.8000      -11.01359500       10.02944763 
     416.9000      -10.27335042        9.33462630 
     417.0000      -10.25308621        8.84392912 
     417.1000      -10.25531226        8.52423609 
     417.2000      -10.42261052        8.21609942 
     417.3000      -10.71122050        8.21455760 
     417.4000      -11.04901924        8.74017297 
     417.5000      -10.13925851        8.78441861 
     417.6000       -9.61516130        9.23208940 
     417.7000       -9.33158992        9.40361615 
     417.8000       -8.83395634        9.34608936 
     417.9000       -8.46556198        9.17561193 
     418.0000       -9.27271388        8.95313599 
     418.1000       -9.45727498        9.14750289 
     418.2000       -9.45636075        9.57832977 
     418.3000       -9.27631003        9.87676237 
     418.4000       -8.94255099       10.31025372 
     418.5000       -9.14689506       10.40368952 
     418.6000       -8.45873745       10.69666532 
     418.7000       -9.31600462       10.92422778 
     418.8000       -9.18318725       11.03952077 
     418.9000      -10.64622004       10.31025372 
     419.0000      -10.34897026       10.18449326 
     419.1000       -9.98848436       10.76277102 
     419.2000      -10.56149657       10.56645259 
     419.3000      -11.31785254       10.21578883 
     419.4000      -12.15317959       10.18449326 
     419.5000      -11.53913956       10.43756711 
     419.6000      -11.47338412       10.02944763 
     419.7000      -12.12229326        9.57832977 
     419.8000      -12.62639110        9.81634110 
     419.9000      -11.68888917        9.93755554 
     420.0000      -11.10055201        9.49057093 
     420.1000      -10.92286105        9.23208940 
     420.2000      -10.92440541        9.17561193 
     420.3000      -11.72586686        9.63728604 
     420.4000      -11.85989302       10.31436964 
     420.5000      -12.44863463       10.30259183 
     420.6000      -12.51971820       11.36956441 
     420.7000      -12.07493448       13.79923917 
     420.8000      -11.82095380       16.69048763 
     420.9000      -11.57419101       19.39816472 
     421.0000      -11.87555187       20.62577532 
     421.1000      -12.41984165       21.66356839 
     421.2000      -13.66305472       24.04553155 
     421.3000      -15.06087039       25.88296052 
     421.4000      -13.99461224       25.25539085 
     421.5000      -13.84650119       24.87091046 
     421.6000      -15.69921642       24.79471964 
     421.7000      -17.40200550       25.41084212 
     421.8000      -16.26090323       26.04227459 
     421.9000      -15.67341860       26.20256927 
     422.0000      -17.06114346       26.89614210 
     422.1000      -17.32021372       27.60552886 
     422.2000      -17.76057204       29.62396306 
     422.3000      -16.45667919       31.11450307 
     422.4000      -17.09810249       33.69825412 
     422.5000      -18.11467069       36.27329173 
     422.6000      -18.83750577       41.00966752 
     422.7000      -19.83539316       47.37103808 
     422.8000      -19.17356214       52.74117142 
     422.9000      -19.76860345       60.54962546 
     423.0000      -21.77416401       70.37251603 
     423.1000      -24.96008192       86.43295717 
     423.2000      -26.27997405      100.74545820 
     423.3000      -24.73574908      110.63290093 
     423.4000      -22.54217209      114.40584257 
     423.5000      -19.23660644      105.50929018 
     423.6000      -23.94728500       97.41956131 
     423.7000      -26.72198115      102.63567985 
     423.8000      -23.67271114      109.46631164 
     423.9000      -18.16493255      108.13108412 
     424.0000      -21.48721551      108.79664954 
     424.1000      -26.18188988      124.14014456 
     424.2000      -18.66976742      130.78695862 
     424.3000      -17.72047092      121.50240457 
     424.4000      -15.15328048      113.57173726 
     424.5000      -18.92013391      121.87576503 
     424.6000      -20.33749854      133.21690285 
     424.7000      -17.88855738      147.41145682 
     424.8000      -20.47834909      170.27774563 
     424.9000      -25.70203623      205.95473219 
     425.0000      -23.81918222      239.02488138 
     425.1000      -19.96720673      232.57722972 
     425.2000      -19.41826736      178.99583635 
     425.3000      -21.83881031      149.25483591 
     425.4000      -20.56758707      133.21690285 
     425.5000      -18.99346174      124.52161043 
     425.6000      -20.86779375      118.19321195 
     425.7000      -19.34858646      115.68183287 
     425.8000      -21.68867412      121.50240457 
     425.9000      -22.15787877      133.62626037 
     426.0000      -25.34473239      148.70591529 
     426.1000      -22.57428380      169.59418032 
     426.2000      -22.51315267      191.12084801 
     426.3000      -23.65050923      199.73168011 
     426.4000      -17.96790272      168.20076387 
     426.5000      -15.58049212       97.41956131 
     426.6000      -17.94462626       63.40137709 
     426.7000      -18.55725725       47.80907574 
     426.8000      -15.65638374       38.56884279 
     426.9000      -15.75794682       32.34626927 
     427.0000      -18.97412348       28.52157497 
     427.1000      -19.78381836       26.03042624 
     427.2000      -18.39940405       23.82522091 
     427.3000      -16.01845597       21.59720310 
     427.4000      -16.65072167       20.12567368 
     427.5000      -13.69612862       16.48690355 
     427.6000      -15.10277374       10.86229384 
     427.7000      -12.65925919        8.68261135 
     427.8000      -15.59410965        7.53973687 
     427.9000      -15.65462224        6.40817915 
     428.0000      -13.43828192        5.61613991 
     428.1000      -13.75635522        6.00831264 
     428.2000      -13.28087393        6.87672615 
     428.3000      -12.24226370        7.82250724 
     428.4000      -12.58283779        8.47686485 
