~Version Information Block
 VERS.                2.00:     CWLS LOG ASCII STANDARD - VERSION 2.000000
 WRAP.                  NO:     One Line Per Depth Step
#
~Well Information Block
#MNEM.UNIT                     Data                         Information
#----------   ------------------------------------------   ----------------
 STRT.M                                        348.0000:     START DEPTH
 STOP.M                                        673.1000:     STOP DEPTH
 STEP.M                                          0.1000:     STEP LENGTH OR LOG DEPTH INCREMENT
 NULL.                                        -999.2500:     NO VALUE
 COMP.                                             OPAB:     COMPANY
 WELL.                                     GRÖTLINGBO-2:     WELL
 FLD.                                        GRÖTLINGBO:     FIELD
 LOC.                                                  :     FIELD LOCATION
 PROV.                                                 :     PROVINCE
 STAT.                                                 :     STATE
 CTRY.                                                 :     COUNTRY
 LCC.                                                  :     SERVICE COMPANY
 DATE.                                                 :     LOG DATE
 WN.                                       GRÖTLINGBO-2:     WELL_NAME
 UWI.                                                  :     UNIQUE WELL ID
 API.                                                  :     API NUMBER
#
~CURVE INFORMATION BLOCK
#MNEM.UNIT       API CODE      Curve Description
#----------    -------------   -------------------
 DEPT.M                                               :    1 DEPTH
 CALI.IN       70 280 01 01                           :    2 Caliper
 GR  .GAPI     35 310 01 01                           :    3 Gamma Ray
 RHOB.G/C3     42 350 01 01                           :    4 Bulk Density
 DRHO.G/C3                                            :    5 Delta Rho
~PARAMETER INFORMATION BLOCK
#MNEM.UNIT                               Value            Description
#----------                       --------------------    -------------------------------------------------
 FTYP.                                            CFDL:    Log File Type
 RUN.                                                1:    Run Number
~OTHER INFORMATION BLOCK
 DIGITISED FROM HARDCOPY BY UKOGL
#
~A    DEPT             CALI              GR                RHOB              DRHO       
# ...
     513.6000        6.38459830      105.35243946        2.53071053        0.04098424 
     513.7000        6.38414423      105.10879934        2.52299654        0.03825638 
     513.8000        6.38361122      106.46278666        2.54442280        0.05865478 
     513.9000        6.35187630      106.55205307        2.55722021        0.06824283 
     514.0000        6.34748871      105.45154502        2.56362819        0.05662843 
     514.1000        6.39976538      103.49239433        2.55523410        0.04066179 
     514.2000        6.53413960      103.53273239        2.55188480        0.03053465 
     514.3000        6.58463865      105.74507724        2.54338280        0.02277098 
     514.4000        6.55807759      106.20294313        2.53177862        0.02130890 
     514.5000        6.46021137      105.91388282        2.53633913        0.02583095 
     514.6000        6.40465998      107.11105376        2.53909495        0.02348729 
     514.7000        6.39601178      108.70409868        2.54555371        0.02389642 
     514.8000        6.38870403      109.23724193        2.55339396        0.03702626 
     514.9000        6.38144090      106.44701966        2.55767546        0.04475154 
     515.0000        6.37423569      102.69967038        2.54554462        0.04736920 
     515.1000        6.36698473       99.63780586        2.54076452        0.06220649 
     515.2000        6.35968388       99.54912051        2.55878741        0.07514723 
     515.3000        6.35237112      101.81816315        2.55969907        0.07417035 
     515.4000        6.34508713      105.39950999        2.55902912        0.06761689 
     515.5000        6.33782281      107.88200593        2.55946323        0.06397611 
     515.6000        6.33071703      107.47114586        2.56158403        0.05544155 
     515.7000        6.32753000      105.95221727        2.56457456        0.05545589 
     515.8000        6.34394689      104.76453956        2.57484554        0.06067093 
     515.9000        6.34499547      104.23033026        2.57936897        0.06046729 
     516.0000        6.35445241      104.00025587        2.57728339        0.05127314 
     516.1000        6.35436175      100.49547204        2.57003471        0.03738221 
     516.2000        6.34479050       97.57114935        2.56627891        0.03569192 
     516.3000        6.34846239       94.50362350        2.58542547        0.04561996 
     516.4000        6.35208257       93.53924880        2.58732342        0.04884317 
     516.5000        6.35574737       96.13220019        2.56773806        0.03704859 
     516.6000        6.35943736       99.53035850        2.56185820        0.03694306 
     516.7000        6.36290191      102.30564139        2.57614910        0.05546754 
     516.8000        6.42531578      102.44364990        2.59154752        0.06245433 
     516.9000        6.53406557      100.69714033        2.59833000        0.06533988 
     517.0000        6.54161992      100.40924926        2.59840798        0.06533410 
     517.1000        6.53168471      100.40387106        2.58637846        0.06265196 
     517.2000        6.45490678       99.36487011        2.57593711        0.05336309 
     517.3000        6.40272155      103.18331491        2.58102799        0.05769302 
     517.4000        6.40373983      107.66454106        2.56907362        0.03969624 
     517.5000        6.40373148      112.08301630        2.58243832        0.06907549 
     517.6000        6.39372206      114.31267851        2.58503786        0.06530208 
     517.7000        6.32800904      115.83100631        2.56114939        0.05307632 
     517.8000        6.32555098      115.19111165        2.54168796        0.03771509 
     517.9000        6.33425672      114.05752685        2.53778773        0.04543937 
     518.0000        6.34252787      117.64672348        2.56554174        0.05815000 
     518.1000        6.35086915      118.79757971        2.58189865        0.05032326 
     518.2000        6.35938648      116.29786650        2.56393002        0.03999203 
     518.3000        6.37205956      112.50726177        2.57164311        0.03966555 
     518.4000        6.39420509      109.82193642        2.57366262        0.04850359 
     518.5000        6.41607389      106.12975935        2.56068218        0.03491059 
     518.6000        6.44961131      102.41975920        2.54277734        0.02470457 
     518.7000        6.49078039      100.31134090        2.53605161        0.02185217 
     518.8000        6.51297028      100.77316893        2.54196432        0.04079086 
     518.9000        6.54261320      104.40155430        2.54656430        0.04425441 
     519.0000        6.54522027      104.79447329        2.54077945        0.04097730 
     519.1000        6.51857200      102.66359418        2.52925630        0.02967018 
     519.2000        6.45907541       99.68605908        2.52798909        0.03037919 
     519.3000        6.41360827       95.00355843        2.52539376        0.04813208 
     519.4000        6.44709838       92.09534069        2.54292175        0.06168197 
     519.5000        6.56148774       91.69200540        2.52961500        0.05618629 
     519.6000        6.56837698       92.49253403        2.52664467        0.05347215 
     519.7000        6.57309103       92.77062610        2.52334638        0.05905113 
     519.8000        6.57755669       91.96985597        2.50266965        0.03639006 
     519.9000        6.58198246       90.72917787        2.52060103        0.04754426 
     520.0000        6.58226860       91.16507482        2.49922741        0.03907809 
     520.1000        6.55288109       91.04293447        2.50814036        0.05333439 
     520.2000        6.50484689       90.00850860        2.52522036        0.06599065 
     520.3000        6.56479667       88.54195941        2.51539978        0.05523543 
     520.4000        6.59147731       87.97313414        2.50278181        0.04002154 
     520.5000        6.60372755       87.72696917        2.49743699        0.03307777 
     520.6000        6.60446464       88.92285545        2.50013992        0.04163417 
     520.7000        6.60593346       90.87166378        2.49538923        0.02219157 
     520.8000        6.57328358       93.32048450        2.48529876        0.02241396 
     520.9000        6.51508310       94.29462981        2.49648983        0.03793800 
     521.0000        6.40143376       93.58521578        2.50785407        0.04544787 
     521.1000        6.32258623       91.25280830        2.51290312        0.05154627 
     521.2000        6.36885267       89.09058394        2.50369933        0.04837487 
     521.3000        6.41183735       87.62533516        2.49250001        0.04693399 
     521.4000        6.37192063       85.03205602        2.50812434        0.06433396 
     521.5000        6.30401896       81.13635208        2.53305081        0.08207907 
     521.6000        6.26260232       78.10839115        2.51968383        0.07022700 
     521.7000        6.26262128       77.57340090        2.50070419        0.04967763 
     521.8000        6.32137210       78.73314549        2.48476757        0.03301382 
     521.9000        6.34406801       81.87978114        2.48294160        0.01764148 
     522.0000        6.34448878       84.35072968        2.47988755        0.01763604 
     522.1000        6.34464278       86.79715910        2.50729273        0.03719799 
     522.2000        6.34468545       88.18180629        2.50372810        0.04621210 
     522.3000        6.34465266       89.61326011        2.50093829        0.05546367 
     522.4000        6.34462151       90.62968740        2.49433851        0.05210485 
     522.5000        6.34462151       93.24361135        2.51381926        0.05710788 
     522.6000        6.34462151       96.12948470        2.51699092        0.05799922 
     522.7000        6.34462151       98.85808149        2.49815043        0.03137086 
