~Version Information Block
 VERS.                2.00:     CWLS LOG ASCII STANDARD - VERSION 2.000000
 WRAP.                  NO:     One Line Per Depth Step
#
~Well Information Block
#MNEM.UNIT                     Data                         Information
#----------   ------------------------------------------   ----------------
 STRT.M                                        350.0000:     START DEPTH
 STOP.M                                        665.0000:     STOP DEPTH
 STEP.M                                          0.1000:     STEP LENGTH OR LOG DEPTH INCREMENT
 NULL.                                        -999.2500:     NO VALUE
 COMP.                                             OPAB:     COMPANY
 WELL.                                     GRÖTLINGBO-2:     WELL
 FLD.                                        GRÖTLINGBO:     FIELD
 LOC.                                                  :     FIELD LOCATION
 PROV.                                                 :     PROVINCE
 STAT.                                                 :     STATE
 CTRY.                                                 :     COUNTRY
 LCC.                                                  :     SERVICE COMPANY
 DATE.                                                 :     LOG DATE
 WN.                                       GRÖTLINGBO-2:     WELL_NAME
 UWI.                                                  :     UNIQUE WELL ID
 API.                                                  :     API NUMBER
#
~CURVE INFORMATION BLOCK
#MNEM.UNIT       API CODE      Curve Description
#----------    -------------   -------------------
 DEPT.M                                               :    1 DEPTH
 SP  .MV       01 010 01 01                           :    2 Spontaneous Potential
 LLD .OHMM     10 220 10 01                           :    3 Latero-Log Deep (Resistivity)
~PARAMETER INFORMATION BLOCK
#MNEM.UNIT                               Value            Description
#----------                       --------------------    -------------------------------------------------
 FTYP.                                             DLL:    Log File Type
 RUN.                                                1:    Run Number
~OTHER INFORMATION BLOCK
 DIGITISED FROM HARDCOPY BY UKOGL
#
~A    DEPT             SP                LLD        
# ...
     365.7000       -8.42170288        7.24492550 
     365.8000       -8.92011105        7.04760550 
     365.9000       -8.17161719        7.13463096 
     366.0000       -7.52418910        7.27518136 
     366.1000       -7.85773686        7.43166877 
     366.2000       -8.05214944        7.53973687 
     366.3000       -8.87079379        7.53973687 
     366.4000       -8.34232360        7.49361240 
     366.5000       -9.17761407        7.36258310 
     366.6000       -9.81164434        7.18191479 
     366.7000       -9.08284011        7.17441671 
     366.8000       -8.82633291        7.00237314 
     366.9000       -9.09518221        7.04848580 
     367.0000       -9.31725108        7.09202310 
     367.1000       -9.74484183        7.13463096 
     367.2000      -10.07081846        7.22273103 
     367.3000      -10.00073819        7.13463096 
     367.4000       -8.96438342        6.96164155 
     367.5000       -9.33344116        6.75129116 
     367.6000       -8.99224867        6.66894154 
     367.7000       -8.23054332        6.79284652 
     367.8000       -8.36496398        6.83465766 
     367.9000       -9.01266484        6.96164155 
     368.0000       -9.63564330        7.09098473 
     368.1000       -9.71431951        7.26718818 
     368.2000       -9.36231206        7.40220823 
     368.3000       -8.40830639        7.44768277 
     368.4000       -8.40213554        7.30961991 
     368.5000       -8.77602361        7.39517182 
     368.6000       -8.23902156        7.64772893 
     368.7000       -6.49927118        7.87296689 
     368.8000       -7.11635930        7.86844965 
     368.9000       -8.92666070        7.87259027 
     369.0000       -9.71126449        8.37021407 
     369.1000       -8.76439845        8.11471679 
     369.2000       -8.12187925        7.63283928 
     369.3000       -7.84449070        7.40220823 
     369.4000       -8.49549184        7.31191897 
     369.5000       -9.02612960        7.31191897 
     369.6000       -8.64918054        7.42495421 
     369.7000       -8.68878463        7.61529543 
     369.8000       -9.47370552        7.79854337 
     369.9000       -9.59892331        7.87065612 
     370.0000       -9.15243752        7.67982072 
     370.1000       -9.05912423        7.44777009 
     370.2000       -9.04441601        7.49917684 
     370.3000       -9.65123033        7.39733834 
     370.4000      -10.28215548        7.18181433 
     370.5000      -10.62290386        7.09098473 
     370.6000      -10.20892189        7.04760550 
     370.7000       -9.58517420        7.00449165 
     370.8000      -10.72593514        6.79284652 
     370.9000      -11.33119339        6.62814417 
     371.0000      -10.63185362        6.62814417 
     371.1000      -10.02009715        6.87672615 
     371.2000      -10.93837362        6.91905359 
     371.3000      -11.18467604        7.09098473 
     371.4000      -11.28577645        7.22273103 
     371.5000      -11.33544831        7.26718818 
     371.6000      -10.78781973        7.26718818 
     371.7000      -10.62307996        7.26622283 
     371.8000       -9.98543718        7.27099648 
     371.9000       -9.54703141        7.18193403 
     372.0000      -10.02141716        7.13524093 
     372.1000       -9.53024043        7.09098473 
     372.2000       -9.32538274        7.31191897 
     372.3000       -9.34200975        7.31191897 
     372.4000       -9.95377423        7.31191897 
     372.5000      -10.25267540        7.26718818 
     372.6000      -10.21538229        7.22030866 
     372.7000       -9.87456041        7.22002037 
     372.8000      -10.00482087        7.22506523 
     372.9000       -9.61014927        7.26507207 
     373.0000       -9.52618677        7.45599257 
     373.1000       -9.70581201        7.56374853 
     373.2000       -9.51827040        7.67306180 
     373.3000       -9.77637001        7.77822414 
     373.4000       -9.71801996        7.81871124 
     373.5000       -9.58970567        7.77863079 
     373.6000       -9.77231296        7.67982072 
     373.7000       -9.92907466        7.51663926 
     373.8000      -10.09921066        7.40220823 
     373.9000      -10.24838991        7.30699895 
     374.0000      -10.11920435        7.31642141 
     374.1000       -9.99571308        7.17690663 
     374.2000       -9.70184383        7.04760550 
     374.3000       -9.44814250        7.09098473 
     374.4000       -9.58259325        7.23808918 
     374.5000       -9.58335653        7.38301606 
     374.6000       -9.72610953        7.53973687 
     374.7000      -10.88370105        7.49361240 
     374.8000       -9.56615033        7.63283928 
     374.9000       -9.36737584        7.67982072 
     375.0000       -9.40928788        7.53973687 
     375.1000       -9.58436015        7.44777009 
     375.2000       -9.99069851        7.49126864 
     375.3000       -9.73126556        7.68261377 
     375.4000       -9.19484047        7.63192926 
     375.5000       -9.18895738        7.59061925 
     375.6000      -10.48438791        7.53466410 
     375.7000      -10.49814624        7.44920080 
     375.8000       -9.24320104        7.40273917 
     375.9000       -8.76792463        7.35421654 
     376.0000       -8.70187780        7.27270547 
     376.1000       -8.77544233        7.09098473 
     376.2000       -8.43658620        7.04760550 
     376.3000       -9.43746499        7.00449165 
     376.4000      -10.42447653        7.09098473 
     376.5000      -10.63647303        7.19246978 
     376.6000      -10.00083856        7.21993235 
     376.7000       -9.98460144        7.24834341 
     376.8000      -10.11909344        7.26836157 
     376.9000       -9.72797542        7.22391332 
     377.0000      -10.22728912        7.13408493 
     377.1000      -10.35816957        7.13393677 
     377.2000      -10.23789929        7.22181741 
     377.3000      -10.17592358        7.35467444 
     377.4000      -10.11424912        7.49094718 
     377.5000      -10.04824071        7.61879152 
     377.6000      -10.01336688        7.67982072 
     377.7000      -10.35153273        7.72709134 
     377.8000       -9.87369288        7.72709134 
     377.9000       -9.06774484        7.67982072 
     378.0000       -9.03436286        7.60945645 
     378.1000       -8.67849545        7.44777009 
     378.2000       -8.66255662        7.26718818 
     378.3000       -9.32552181        7.17854584 
     378.4000      -10.09312230        7.17854584 
     378.5000       -9.96145797        7.31191897 
     378.6000       -9.79984819        7.35692509 
     378.7000      -10.04381805        7.26718818 
     378.8000      -10.12358510        7.37953193 
     378.9000       -9.19444616        7.44777009 
     379.0000       -8.14698925        7.44777009 
     379.1000       -8.55654321        7.49361240 
     379.2000       -9.32979307        7.40220823 
     379.3000       -9.32889481        7.40220823 
     379.4000       -9.74078924        7.60945645 
     379.5000       -9.48719459        7.67982072 
     379.6000       -9.45236387        7.60945645 
     379.7000       -9.45695370        7.49361240 
     379.8000       -9.45308968        7.44777009 
     379.9000       -9.62310058        7.56290547 
     380.0000      -10.23702011        7.67982072 
     380.1000      -11.42055217        7.93369300 
     380.2000      -10.43518484        8.16583728 
     380.3000       -9.30851208        8.26667092 
     380.4000       -8.01776897        8.26667092 
     380.5000       -7.43842885        8.21609942 
     380.6000       -7.85227329        8.16583728 
     380.7000       -7.47228453        8.06623357 
     380.8000       -6.50843624        7.77465291 
     380.9000       -7.66527554        7.49361240 
     381.0000       -7.83478656        7.39775744 
     381.1000       -7.69395615        7.35746216 
     381.2000       -7.75897641        7.31133580 
     381.3000       -7.90557277        7.31191897 
