~Version Information Block
 VERS.                2.00:     CWLS LOG ASCII STANDARD - VERSION 2.000000
 WRAP.                  NO:     One Line Per Depth Step
#
~Well Information Block
#MNEM.UNIT                     Data                         Information
#----------   ------------------------------------------   ----------------
 STRT.M                                        348.0000:     START DEPTH
 STOP.M                                        673.1000:     STOP DEPTH
 STEP.M                                          0.1000:     STEP LENGTH OR LOG DEPTH INCREMENT
 NULL.                                        -999.2500:     NO VALUE
 COMP.                                             OPAB:     COMPANY
 WELL.                                     GRÖTLINGBO-2:     WELL
 FLD.                                        GRÖTLINGBO:     FIELD
 LOC.                                                  :     FIELD LOCATION
 PROV.                                                 :     PROVINCE
 STAT.                                                 :     STATE
 CTRY.                                                 :     COUNTRY
 LCC.                                                  :     SERVICE COMPANY
 DATE.                                                 :     LOG DATE
 WN.                                       GRÖTLINGBO-2:     WELL_NAME
 UWI.                                                  :     UNIQUE WELL ID
 API.                                                  :     API NUMBER
#
~CURVE INFORMATION BLOCK
#MNEM.UNIT       API CODE      Curve Description
#----------    -------------   -------------------
 DEPT.M                                               :    1 DEPTH
 CALI.IN       70 280 01 01                           :    2 Caliper
 GR  .GAPI     35 310 01 01                           :    3 Gamma Ray
 RHOB.G/C3     42 350 01 01                           :    4 Bulk Density
 DRHO.G/C3                                            :    5 Delta Rho
~PARAMETER INFORMATION BLOCK
#MNEM.UNIT                               Value            Description
#----------                       --------------------    -------------------------------------------------
 FTYP.                                            CFDL:    Log File Type
 RUN.                                                1:    Run Number
~OTHER INFORMATION BLOCK
 DIGITISED FROM HARDCOPY BY UKOGL
#
~A    DEPT             CALI              GR                RHOB              DRHO       
# ...
     559.6000        6.39897573      111.86589670        2.54167222        0.05133699 
     559.7000        6.39395477      109.27758128        2.53053249        0.03544061 
     559.8000        6.38904269      107.38461912        2.51254965        0.03375035 
     559.9000        6.38565742      111.67304968        2.53213657        0.04826800 
     560.0000        6.40881958      113.22127832        2.53509059        0.04626806 
     560.1000        6.43022299      114.49766941        2.53216337        0.04027244 
     560.2000        6.43113232      115.75753759        2.53782363        0.04581411 
     560.3000        6.38700275      115.21052971        2.54872165        0.04726759 
     560.4000        6.38457897      113.56315823        2.54918512        0.04342735 
     560.5000        6.39731362      111.35985934        2.54911931        0.04827845 
     560.6000        6.41742624      110.57914601        2.54131151        0.03738379 
     560.7000        6.42301736      111.69892753        2.54078566        0.04530613 
     560.8000        6.40324719      112.27854029        2.55521892        0.04708318 
     560.9000        6.38391078      113.70077592        2.56074113        0.04395181 
     561.0000        6.38526639      115.05101788        2.57686273        0.05517320 
     561.1000        6.40666684      115.33315643        2.54735398        0.04839325 
     561.2000        6.42644042      112.74782910        2.55513964        0.05838818 
     561.3000        6.44348026      109.52496116        2.56004512        0.04949023 
     561.4000        6.43405183      109.58865643        2.54740107        0.04010737 
     561.5000        6.41057266      110.23295961        2.55425538        0.03181772 
     561.6000        6.41698293      112.61351099        2.52564110        0.01664030 
     561.7000        6.45413806      115.60722113        2.51608695        0.01564448 
     561.8000        6.49129950      116.94819292        2.51885454        0.02560280 
     561.9000        6.52186252      119.09080253        2.52652923        0.02359464 
     562.0000        6.48917465      119.19738622        2.54726146        0.04097999 
     562.1000        6.60630611      116.23927339        2.56363939        0.04984104 
     562.2000        6.62317663      113.56250700        2.56188501        0.05963494 
     562.3000        6.61535928      110.38642743        2.55786447        0.06211901 
     562.4000        6.60749764      106.93062049        2.54743714        0.05070546 
     562.5000        6.60271998      104.06328688        2.54451018        0.05114055 
     562.6000        6.50091398      102.83796769        2.56372573        0.06529500 
     562.7000        6.44550810      106.34292985        2.57986142        0.07458208 
     562.8000        6.45285349      112.74085318        2.59181425        0.08599405 
     562.9000        6.46739543      116.38725446        2.60876084        0.09408615 
     563.0000        6.49892947      113.88804496        2.60063069        0.08315098 
     563.1000        6.48028380      104.89590538        2.58999961        0.07288313 
     563.2000        6.45958142       94.21929326        2.57972491        0.07147435 
     563.3000        6.40344238       85.26100282        2.59533180        0.10131635 
     563.4000        6.29510592       76.37989039        2.61688198        0.12863329 
     563.5000        6.22463813       74.78008832        2.60195049        0.11679667 
     563.6000        6.16653394       74.71114968        2.58202474        0.09792175 
     563.7000        6.18347385       75.19007859        2.58624806        0.08549876 
     563.8000        6.26575834       75.56804350        2.58763414        0.07410483 
     563.9000        6.34418403       72.75430247        2.58492375        0.05714357 
     564.0000        6.40454936       66.57500824        2.58637181        0.05741838 
     564.1000        6.44689217       63.07874143        2.58813700        0.05393517 
     564.2000        6.41916993       62.68359117        2.58502025        0.06029897 
     564.3000        6.34741524       64.40163424        2.59716220        0.06052736 
     564.4000        6.34371526       67.51178780        2.57343182        0.05053738 
     564.5000        6.31945334       70.23200253        2.56649181        0.05484697 
     564.6000        6.31782790       70.97746230        2.55965851        0.05051095 
     564.7000        6.36197271       70.69740757        2.55614248        0.05598772 
     564.8000        6.36425346       71.13798193        2.54528227        0.04309366 
     564.9000        6.36460867       70.66495343        2.53933418        0.04970918 
     565.0000        6.36529938       69.80800971        2.54188847        0.05104800 
     565.1000        6.30622008       70.88691879        2.52818763        0.04573128 
     565.2000        6.27927389       71.64830242        2.51633451        0.04173884 
     565.3000        6.26803962       71.03461564        2.50577006        0.04272475 
     565.4000        6.28181798       69.23980485        2.50524432        0.04669973 
     565.5000        6.30808346       69.15572192        2.52544320        0.05434050 
     565.6000        6.32499234       69.86146637        2.53942382        0.06172490 
     565.7000        6.31413001       71.20160941        2.55375270        0.07839637 
     565.8000        6.30647383       72.81879525        2.58016364        0.10740637 
     565.9000        6.27131130       73.05659566        2.61258766        0.14109634 
     566.0000        6.22303572       74.74241045        2.60276841        0.13651058 
     566.1000        6.22507354       79.36641534        2.59810248        0.13406514 
     566.2000        6.29185677       83.84989879        2.60435196        0.13739530 
     566.3000        6.37237617       83.96725130        2.59463138        0.11938897 
     566.4000        6.40355681       77.00107887        2.60970896        0.12541650 
     566.5000        6.40422560       71.21500876        2.58737839        0.08939383 
     566.6000        6.40440308       69.11945479        2.54628329        0.05181624 
     566.7000        6.40674320       67.01039276        2.55791589        0.05241738 
     566.8000        6.41886882       63.43934562        2.57282722        0.06082165 
     566.9000        6.46168249       60.83717111        2.57913048        0.07493923 
     567.0000        6.45074688       61.63973531        2.58957237        0.09174445 
     567.1000        6.41164908       67.80649847        2.60614554        0.10639924 
     567.2000        6.37327672       72.68009807        2.61381747        0.11676402 
     567.3000        6.33496261       75.57881792        2.59591864        0.11332823 
     567.4000        6.29668169       75.72211762        2.58821473        0.11661984 
     567.5000        6.25852364       74.63656981        2.59291266        0.12629812 
     567.6000        6.22384019       73.31130528        2.59601522        0.13619307 
     567.7000        6.18313955       71.00560655        2.59419835        0.14299253 
     567.8000        6.18437324       68.09973278        2.59151373        0.14093149 
     567.9000        6.19574059       65.60615458        2.56098344        0.10586776 
     568.0000        6.23304777       65.01294013        2.52405789        0.07281983 
     568.1000        6.31369351       64.99484197        2.53649674        0.05929728 
     568.2000        6.36488862       65.34586031        2.56421543        0.07581875 
     568.3000        6.35057744       66.68860574        2.57021327        0.08187268 
     568.4000        6.33772029       67.23245094        2.57083434        0.08621071 
     568.5000        6.32485254       67.76481957        2.55889981        0.07843502 
     568.6000        6.31207897       67.92975559        2.54956439        0.07001692 
     568.7000        6.29937770       66.95938781        2.54664441        0.06744948 
