~Version Information Block
 VERS.                2.00:     CWLS LOG ASCII STANDARD - VERSION 2.000000
 WRAP.                  NO:     One Line Per Depth Step
#
~Well Information Block
#MNEM.UNIT                     Data                         Information
#----------   ------------------------------------------   ----------------
 STRT.M                                        348.0000:     START DEPTH
 STOP.M                                        673.1000:     STOP DEPTH
 STEP.M                                          0.1000:     STEP LENGTH OR LOG DEPTH INCREMENT
 NULL.                                        -999.2500:     NO VALUE
 COMP.                                             OPAB:     COMPANY
 WELL.                                     GRÖTLINGBO-2:     WELL
 FLD.                                        GRÖTLINGBO:     FIELD
 LOC.                                                  :     FIELD LOCATION
 PROV.                                                 :     PROVINCE
 STAT.                                                 :     STATE
 CTRY.                                                 :     COUNTRY
 LCC.                                                  :     SERVICE COMPANY
 DATE.                                                 :     LOG DATE
 WN.                                       GRÖTLINGBO-2:     WELL_NAME
 UWI.                                                  :     UNIQUE WELL ID
 API.                                                  :     API NUMBER
#
~CURVE INFORMATION BLOCK
#MNEM.UNIT       API CODE      Curve Description
#----------    -------------   -------------------
 DEPT.M                                               :    1 DEPTH
 CALI.IN       70 280 01 01                           :    2 Caliper
 GR  .GAPI     35 310 01 01                           :    3 Gamma Ray
 RHOB.G/C3     42 350 01 01                           :    4 Bulk Density
 DRHO.G/C3                                            :    5 Delta Rho
~PARAMETER INFORMATION BLOCK
#MNEM.UNIT                               Value            Description
#----------                       --------------------    -------------------------------------------------
 FTYP.                                            CFDL:    Log File Type
 RUN.                                                1:    Run Number
~OTHER INFORMATION BLOCK
 DIGITISED FROM HARDCOPY BY UKOGL
#
~A    DEPT             CALI              GR                RHOB              DRHO       
     348.0000        6.64342629      110.10956175     -999.25000000     -999.25000000 
     348.1000        6.65692784      110.69887118     -999.25000000     -999.25000000 
     348.2000        6.65161576      112.09329349     -999.25000000     -999.25000000 
     348.3000        6.64630367      113.09760956     -999.25000000     -999.25000000 
     348.4000        6.66168659      113.39641434     -999.25000000     -999.25000000 
     348.5000        6.69293397      113.14623955     -999.25000000     -999.25000000 
     348.6000        6.70257250      110.78210182     -999.25000000     -999.25000000 
     348.7000        6.69448010      106.39697376     -999.25000000     -999.25000000 
     348.8000        6.68721048      101.91156734     -999.25000000     -999.25000000 
     348.9000        6.64611591       99.05027626     -999.25000000     -999.25000000 
     349.0000        6.64372756       99.13482317     -999.25000000     -999.25000000 
     349.1000        6.64355427      100.60854141     -999.25000000     -999.25000000 
     349.2000        6.64347332      103.31739932     -999.25000000     -999.25000000 
     349.3000        6.64342018      105.67373853     -999.25000000     -999.25000000 
     349.4000        6.64339645      105.56800030     -999.25000000     -999.25000000 
     349.5000        6.64334915      104.51070445     -999.25000000     -999.25000000 
     349.6000        6.64332032      104.92024762     -999.25000000     -999.25000000 
     349.7000        6.64319983      107.58554027     -999.25000000     -999.25000000 
     349.8000        6.64278684      111.49317812     -999.25000000     -999.25000000 
     349.9000        6.66383825      113.65828108     -999.25000000        0.00533333 
     350.0000        6.69268899      113.21111623     -999.25000000        0.02250000 
     350.1000        6.66155260      111.73599431        2.52597403        0.02150000 
     350.2000        6.67663702      110.27930932        2.52047952        0.01350000 
     350.3000        6.68287914      108.82659101        2.51698302        0.01600000 
     350.4000        6.68283072      107.36835799        2.52097902        0.01863258 
     350.5000        6.67205162      104.56584236        2.53196803        0.02246851 
     350.6000        6.66396332      102.33357968        2.53595976        0.02664015 
     350.7000        6.66904145      105.97145402        2.54184313        0.02844862 
     350.8000        6.67389417      109.94515971        2.54352030        0.01677759 
     350.9000        6.67870425      113.80918319        2.52079403        0.01172086 
     351.0000        6.68352166      117.50794199        2.50244461        0.01145869 
     351.1000        6.68832438      117.69240479        2.50227364        0.01316601 
     351.2000        6.69309701      116.37328593        2.50906561        0.01547983 
     351.3000        6.69789845      114.79123082        2.50277320        0.01214831 
     351.4000        6.70279989      110.08935703        2.48927047        0.00946292 
     351.5000        6.68329077      103.54024761        2.48850531        0.01416942 
     351.6000        6.66403956      102.95181414        2.51562860        0.02430746 
     351.7000        6.67544126      107.20055062        2.52954226        0.02797073 
     351.8000        6.68633042      112.10259198        2.53680535        0.03498740 
     351.9000        6.69721808      115.71890575        2.54392714        0.04547183 
     352.0000        6.70822230      119.17433321        2.54442218        0.04709046 
     352.1000        6.71984887      122.07901117        2.54102239        0.03551127 
     352.2000        6.70508776      123.50637849        2.54150884        0.03249682 
     352.3000        6.68381237      120.16334779        2.54245530        0.02935358 
     352.4000        6.68972640      114.15207253        2.53622862        0.01665188 
     352.5000        6.69503696      107.45547659        2.53204928        0.01446399 
     352.6000        6.70014459      101.76403437        2.52958718        0.01985306 
     352.7000        6.69518289      101.43644459        2.53187089        0.02549713 
     352.8000        6.68322076      102.07925164        2.53488181        0.02611659 
     352.9000        6.68328395      103.31570438        2.52882333        0.02054792 
     353.0000        6.68326119      105.72373945        2.52425093        0.02123370 
     353.1000        6.68327098      108.93590362        2.52028355        0.02267217 
     353.2000        6.68336342      109.92870520        2.52991697        0.02560208 
     353.3000        6.68356210      109.60742952        2.53629441        0.02893928 
     353.4000        6.68394640      110.80116151        2.53745048        0.03231141 
     353.5000        6.68680552      111.31018868        2.54634369        0.03524168 
     353.6000        6.70304143      111.66979053        2.54607181        0.03713517 
     353.7000        6.69815592      111.14332780        2.52271254        0.03306575 
     353.8000        6.69034477      110.09235523        2.53574257        0.03477739 
     353.9000        6.68382838      109.58758568        2.54382159        0.04253152 
     354.0000        6.69233733      109.83409059        2.54387014        0.03941937 
     354.1000        6.70064452      110.32630926        2.54039066        0.03738679 
     354.2000        6.70400639      110.38598475        2.54533652        0.04072976 
     354.3000        6.70728591      110.33359822        2.54829460        0.04393034 
     354.4000        6.72489877      110.08117442        2.55168869        0.04186020 
     354.5000        6.70100547      111.45690420        2.54648469        0.03399421 
     354.6000        6.70258275      112.82164254        2.54255211        0.02631080 
     354.7000        6.70303009      114.30455041        2.54064518        0.01951099 
     354.8000        6.70645536      114.27295694        2.53906966        0.01933531 
     354.9000        6.71537529      112.91837474        2.55173770        0.03602725 
     355.0000        6.72295129      112.21861212        2.56018711        0.03986394 
     355.1000        6.72318745      112.54883051        2.53626610        0.02288581 
     355.2000        6.73310493      113.42913558        2.52094673        0.02175131 
     355.3000        6.74445779      114.88746639        2.52919492        0.03316098 
     355.4000        6.75582817      115.64793551        2.52109310        0.01588530 
     355.5000        6.76720714      117.01822018        2.51629359        0.01145300 
     355.6000        6.77859817      117.49036385        2.50112336        0.01038921 
     355.7000        6.78998293      115.40950919        2.50065074        0.02192248 
     355.8000        6.80136596      115.31243191        2.51069821        0.02616489 
     355.9000        6.81274900      119.58572825        2.51136219        0.02878975 
     356.0000        6.82413204      123.86186773        2.50269958        0.03099647 
     356.1000        6.83551508      128.81249544        2.53055361        0.05105073 
     356.2000        6.84689983      131.40965086        2.54603935        0.05670688 
     356.3000        6.85820572      132.74398097        2.53104301        0.04541440 
     356.4000        6.86948530      131.98669126        2.50920680        0.03252139 
     356.5000        6.88066556      128.99307389        2.51909273        0.03395936 
     356.6000        6.89154324      126.78111905        2.54068810        0.06243080 
     356.7000        6.89926686      124.85160184        2.55986167        0.06886430 
     356.8000        6.96037926      122.26287338        2.54725202        0.06003197 
     356.9000        6.99897650      118.15503246        2.53587229        0.06026350 
     357.0000        7.00138629      116.24272425        2.54526605        0.05529998 
     357.1000        7.00098467      114.70315372        2.54818894        0.05041884 
