~Version Information Block
 VERS.                2.00:     CWLS LOG ASCII STANDARD - VERSION 2.000000
 WRAP.                  NO:     One Line Per Depth Step
#
~Well Information Block
#MNEM.UNIT                     Data                         Information
#----------   ------------------------------------------   ----------------
 STRT.M                                        350.0000:     START DEPTH
 STOP.M                                        665.0000:     STOP DEPTH
 STEP.M                                          0.1000:     STEP LENGTH OR LOG DEPTH INCREMENT
 NULL.                                        -999.2500:     NO VALUE
 COMP.                                             OPAB:     COMPANY
 WELL.                                     GRÖTLINGBO-2:     WELL
 FLD.                                        GRÖTLINGBO:     FIELD
 LOC.                                                  :     FIELD LOCATION
 PROV.                                                 :     PROVINCE
 STAT.                                                 :     STATE
 CTRY.                                                 :     COUNTRY
 LCC.                                                  :     SERVICE COMPANY
 DATE.                                                 :     LOG DATE
 WN.                                       GRÖTLINGBO-2:     WELL_NAME
 UWI.                                                  :     UNIQUE WELL ID
 API.                                                  :     API NUMBER
#
~CURVE INFORMATION BLOCK
#MNEM.UNIT       API CODE      Curve Description
#----------    -------------   -------------------
 DEPT.M                                               :    1 DEPTH
 SP  .MV       01 010 01 01                           :    2 Spontaneous Potential
 LLD .OHMM     10 220 10 01                           :    3 Latero-Log Deep (Resistivity)
~PARAMETER INFORMATION BLOCK
#MNEM.UNIT                               Value            Description
#----------                       --------------------    -------------------------------------------------
 FTYP.                                             DLL:    Log File Type
 RUN.                                                1:    Run Number
~OTHER INFORMATION BLOCK
 DIGITISED FROM HARDCOPY BY UKOGL
#
~A    DEPT             SP                LLD        
# ...
     444.2000      -25.14400711       95.34958247 
     444.3000      -26.51882993      102.49358694 
     444.4000      -27.40530409      113.33816926 
     444.5000      -24.50041081      126.53057460 
     444.6000      -26.19533095      140.01002585 
     444.7000      -27.73342739      153.31594866 
     444.8000      -25.56639937      158.41932307 
     444.9000      -25.29089971      144.27924608 
     445.0000      -26.19643062      138.21307088 
     445.1000      -29.45970004      148.77456331 
     445.2000      -29.17192261      156.37711700 
     445.3000      -24.65409505      151.60513052 
     445.4000      -23.51541034      142.50311386 
     445.5000      -25.93753944      142.48673093 
     445.6000      -27.06967356      145.16730966 
     445.7000      -24.08091217      133.21690285 
     445.8000      -25.30611407      128.40133781 
     445.9000      -26.95402801      126.05923195 
     446.0000      -27.81865306      124.05353662 
     446.1000      -24.62300996      128.00798658 
     446.2000      -26.78779019      134.03687580 
     446.3000      -27.64182773      139.06379611 
     446.4000      -25.32421004      132.11648276 
     446.5000      -22.47024050      120.63919690 
     446.6000      -21.48981517      120.67801973 
     446.7000      -26.86539890      127.61584036 
     446.8000      -29.09556211      133.21690285 
     446.9000      -23.20804062      125.67305564 
     447.0000      -23.01922038      115.44099967 
     447.1000      -26.52983957      111.50013087 
     447.2000      -28.04908983      114.27079084 
     447.3000      -24.47452298       99.22955906 
     447.4000      -22.59194950       87.23219847 
     447.5000      -23.28797709       84.59642259 
     447.6000      -23.87483423       81.53840544 
     447.7000      -20.03635503       77.06651845 
     447.8000      -22.68076430       77.58307635 
     447.9000      -22.85334462       78.07335837 
     448.0000      -21.91769363       84.65285632 
     448.1000      -21.70859526       81.01649370 
     448.2000      -21.54249413       77.62030333 
     448.3000      -22.63184995       80.54383166 
     448.4000      -21.97258567       79.07467111 
     448.5000      -20.91353786       76.21625590 
     448.6000      -22.10938555       72.56511678 
     448.7000      -21.96242719       69.51413943 
     448.8000      -20.07638284       64.57933713 
     448.9000      -21.77017396       59.29907200 
     449.0000      -19.45790702       57.77593835 
     449.1000      -19.52316693       55.39824655 
     449.2000      -18.50913929       54.38443130 
     449.3000      -19.95474855       52.09785511 
     449.4000      -20.54636842       50.52368557 
     449.5000      -19.96642444       51.14756367 
     449.6000      -19.91656850       49.88446234 
     449.7000      -18.35467188       50.87234059 
     449.8000      -18.64927647       49.60210779 
     449.9000      -19.57706367       49.29866602 
     450.0000      -20.03044241       50.89424328 
     450.1000      -20.05034792       51.40089767 
     450.2000      -17.47102380       52.41852637 
     450.3000      -19.61709206       57.12080290 
     450.4000      -21.92317129       62.24490365 
     450.5000      -19.95228669       68.03709729 
     450.6000      -20.20348559       75.28659963 
     450.7000      -22.66350028       79.07467111 
     450.8000      -22.60835594       77.63230879 
     450.9000      -21.30884414       71.24149205 
     451.0000      -21.91301950       63.62886939 
     451.1000      -20.10675375       58.18207358 
     451.2000      -25.83536127       53.39243155 
     451.3000      -24.07909784       51.77914556 
     451.4000      -22.96225604       50.99087561 
     451.5000      -22.17710405       49.75452836 
     451.6000      -20.25022337       49.45015415 
     451.7000      -25.03373509       49.57292022 
     451.8000      -22.23796558       51.50700106 
     451.9000      -22.37233952       54.01079233 
     452.0000      -23.25001928       56.29430931 
     452.1000      -22.46018565       56.78213212 
     452.2000      -22.94170263       56.74662595 
     452.3000      -23.52901402       58.18207358 
     452.4000      -24.11529221       58.54019425 
     452.5000      -21.78406465       55.39486182 
     452.6000      -20.09197081       51.77914556 
     452.7000      -22.16397260       54.05173358 
     452.8000      -22.91445783       58.54019425 
     452.9000      -22.08260250       61.86411935 
     453.0000      -20.05973096       59.61628294 
     453.1000      -20.68232104       53.55649927 
     453.2000      -20.55366309       49.75452836 
     453.3000      -22.33782609       47.37103808 
     453.4000      -19.83038513       45.51878236 
     453.5000      -19.36859227       45.24032040 
     453.6000      -22.70335611       47.95598657 
     453.7000      -23.42127088       53.06580240 
     453.8000      -24.09854564       61.67460164 
     453.9000      -22.86929377       68.45587732 
     454.0000      -23.07538101       68.66623298 
     454.1000      -25.42431883       65.77918296 
     454.2000      -26.97930292       68.24616609 
     454.3000      -27.59583390       71.24149205 
     454.4000      -25.63138565       74.14045935 
     454.5000      -27.85335672       77.87086238 
     454.6000      -28.00399383       80.05110335 
     454.7000      -25.92819010       77.87086238 
     454.8000      -28.61257935       74.59680663 
     454.9000      -28.97779564       72.12119840 
     455.0000      -28.26001225       70.75138113 
     455.1000      -26.82893992       67.62087914 
     455.2000      -27.05797240       66.59143946 
     455.3000      -28.83093074       68.87723503 
     455.4000      -29.85426983       70.37251603 
     455.5000      -26.24263933       70.37251603 
     455.6000      -28.07649218       70.58876125 
     455.7000      -28.72232694       76.05640850 
     455.8000      -30.02871567       84.47735900 
     455.9000      -26.50916414       92.29818241 
     456.0000      -27.97663489       92.31460663 
     456.1000      -27.14479440       82.82934067 
     456.2000      -25.97985273       71.33167358 
     456.3000      -23.94613072       58.67237420 
     456.4000      -25.50333349       48.25116391 
     456.5000      -27.37279759       40.88403641 
     456.6000      -24.95452928       36.72120269 
     456.7000      -25.58695497       33.80180430 
     456.8000      -23.60045339       33.28721592 
     456.9000      -23.49817985       33.69825412 
     457.0000      -25.86325639       33.49210446 
     457.1000      -23.29836085       36.05138923 
     457.2000      -25.85576919       38.56884279 
     457.3000      -23.96268579       41.77160286 
     457.4000      -24.81237681       46.36449438 
     457.5000      -26.01097380       53.39243155 
     457.6000      -26.42267713       62.88394994 
     457.7000      -25.51464006       70.43098144 
     457.8000      -25.25537842       76.30648197 
     457.9000      -26.17756252       81.53840544 
     458.0000      -28.57320442       86.11253364 
     458.1000      -27.18486243       89.12595406 
     458.2000      -28.78331511       90.45140056 
     458.3000      -27.61537840       90.45714104 
     458.4000      -28.34825111       89.93784936 
     458.5000      -30.31316398       90.52588000 
     458.6000      -31.21178570       96.52698106 
     458.7000      -26.13496181       96.82359542 
     458.8000      -27.32113127       88.85292105 
     458.9000      -29.57570393       87.76912766 
     459.0000      -31.29078598       92.75267802 
     459.1000      -28.80815858       97.41956131 
     459.2000      -26.82388420       98.01919547 
     459.3000      -30.20198296       91.34063947 
     459.4000      -35.00986616       97.41956131 
     459.5000      -33.61932493      102.32126045 
     459.6000      -31.53447032      102.95106542 
     459.7000      -30.08615480      101.69530834 
     459.8000      -37.65246663      108.46335631 
