~Version Information Block
 VERS.                2.00:     CWLS LOG ASCII STANDARD - VERSION 2.000000
 WRAP.                  NO:     One Line Per Depth Step
#
~Well Information Block
#MNEM.UNIT                     Data                         Information
#----------   ------------------------------------------   ----------------
 STRT.M                                        348.0000:     START DEPTH
 STOP.M                                        673.1000:     STOP DEPTH
 STEP.M                                          0.1000:     STEP LENGTH OR LOG DEPTH INCREMENT
 NULL.                                        -999.2500:     NO VALUE
 COMP.                                             OPAB:     COMPANY
 WELL.                                     GRÖTLINGBO-2:     WELL
 FLD.                                        GRÖTLINGBO:     FIELD
 LOC.                                                  :     FIELD LOCATION
 PROV.                                                 :     PROVINCE
 STAT.                                                 :     STATE
 CTRY.                                                 :     COUNTRY
 LCC.                                                  :     SERVICE COMPANY
 DATE.                                                 :     LOG DATE
 WN.                                       GRÖTLINGBO-2:     WELL_NAME
 UWI.                                                  :     UNIQUE WELL ID
 API.                                                  :     API NUMBER
#
~CURVE INFORMATION BLOCK
#MNEM.UNIT       API CODE      Curve Description
#----------    -------------   -------------------
 DEPT.M                                               :    1 DEPTH
 CALI.IN       70 280 01 01                           :    2 Caliper
 GR  .GAPI     35 310 01 01                           :    3 Gamma Ray
 RHOB.G/C3     42 350 01 01                           :    4 Bulk Density
 DRHO.G/C3                                            :    5 Delta Rho
~PARAMETER INFORMATION BLOCK
#MNEM.UNIT                               Value            Description
#----------                       --------------------    -------------------------------------------------
 FTYP.                                            CFDL:    Log File Type
 RUN.                                                1:    Run Number
~OTHER INFORMATION BLOCK
 DIGITISED FROM HARDCOPY BY UKOGL
#
~A    DEPT             CALI              GR                RHOB              DRHO       
# ...
     660.8000        6.34542417        0.29886903        2.54403098        0.08830896 
     660.9000        6.34690801        0.30688718        2.53606635        0.07580138 
     661.0000        6.34859249        0.31490534        2.52176882        0.07148087 
     661.1000        6.35033977        0.32292349        2.49968380        0.05124200 
     661.2000        6.35215147        0.33094165        2.47367853        0.03314332 
     661.3000        6.35395501        0.33895981        2.44716229        0.02119493 
     661.4000        6.35575729        0.34697796        2.44749641        0.02313055 
     661.5000        6.35756057        0.35499612        2.45973615        0.02317492 
     661.6000        6.35942606        0.36301427        2.46395169        0.01768518 
     661.7000        6.36128095        0.37103243        2.47617074        0.03052769 
     661.8000        6.36306338        0.37905058        2.48006332        0.04868788 
     661.9000        6.36477012        0.38706874        2.48354760        0.07072090 
     662.0000        6.36407385        0.39508689        2.49461956        0.08977044 
     662.1000        6.29514079        0.40310505        2.51172057        0.09879744 
     662.2000        6.22900384        0.41112703        2.49835307        0.06922673 
     662.3000        6.30146036        0.41897266        2.47691686        0.03895247 
     662.4000        6.31124708        0.42642920        2.46701663        0.02722365 
     662.5000        6.33203614        0.43070499        2.47402015        0.02724072 
     662.6000        6.34557819        0.42404962        2.49253684        0.04767195 
     662.7000        6.34665920        0.43305829        2.49866758        0.05574592 
     662.8000        6.29467979        0.66202468        2.49384701        0.04954597 
     662.9000        6.22366615        2.71635882        2.50458228        0.06777089 
     663.0000        6.17942887       11.07430930        2.51119823        0.08383796 
     663.1000        6.15515172       31.22686687        2.48820670        0.07857826 
     663.2000        6.14538428       35.21512151        2.47015328        0.08585293 
     663.3000        6.11815219       38.35600508        2.46361174        0.09752695 
     663.4000        6.08725868       40.58527289        2.45524864        0.10796228 
     663.5000        6.05636239       41.27092954        2.44439682        0.10141893 
     663.6000        6.02553356       42.47305101        2.43473564        0.10346998 
     663.7000        6.00647272       44.38352170        2.42933050        0.10813217 
     663.8000        6.02608753       44.69232734        2.42650367        0.10358040 
     663.9000        6.02287147       44.96007534        2.42225553        0.09310349 
     664.0000        6.02009219       45.17078879        2.41962648        0.09235627 
     664.1000        6.01733418       45.61559402        2.41447752        0.08388836 
     664.2000        6.01458757       46.24477128        2.41901695        0.08765962 
     664.3000        6.01180817       46.44653965        2.42213364        0.09943079 
     664.4000        6.00905974       45.63263004        2.43589279        0.10274544 
     664.5000        6.00631089       44.81634299        2.42694368        0.08898631 
     664.6000        6.00356205       43.99656470        2.42804022        0.09409995 
     664.7000        6.00081320       44.05816123        2.42510722        0.08650764 
     664.8000        5.99806435       45.52282786        2.42540011        0.08172327 
     664.9000        5.99531551       45.25288663        2.42914936        0.08541248 
     665.0000        5.99256666       44.42192483        2.45358357        0.09294504 
     665.1000        5.98981782       43.90530716        2.46190042        0.10041220 
     665.2000        5.98706897       41.07685738        2.44760027        0.10249578 
     665.3000        5.98432013       40.86647973        2.42874427        0.08356265 
     665.4000        5.98157128       43.19596222        2.41971296        0.07100230 
     665.5000        5.97882108       43.22611089        2.41302452        0.07286561 
     665.6000        5.97606894       43.17844139        2.41024631        0.07652812 
     665.7000        5.97331889       42.90339474        2.40645719        0.07112130 
     665.8000        5.97057238       41.99338799        2.40781898        0.06368062 
     665.9000        5.96783339       42.11276944        2.42574587        0.06677772 
     666.0000        5.96614268       41.94682039        2.43887130        0.08558655 
     666.1000        5.96777653       42.32979758        2.44743209        0.09255791 
     666.2000        5.96926940       44.01618950        2.45577331        0.10114124 
     666.3000        5.97075655       45.47104281        2.45735165        0.10795019 
     666.4000        5.97224115       44.51805679        2.43717064        0.10436287 
     666.5000        5.97372438       42.60259178        2.43045798        0.09314383 
     666.6000        5.97520395       41.44484358        2.43004938        0.08693395 
     666.7000        5.97668374       42.23011438        2.42382878        0.07692050 
     666.8000        5.97816354       42.45963054        2.41654025        0.07694034 
     666.9000        5.97964333       40.94686768        2.42639101        0.09467217 
     667.0000        5.98112313       40.81809184        2.43796360        0.09712057 
     667.1000        5.98260292       41.12471096        2.42143020        0.08771930 
     667.2000        5.98408272       41.70815786        2.42096844        0.09150310 
     667.3000        5.98556251       44.40824004        2.41726781        0.08307878 
     667.4000        5.98704231       45.38674713        2.43492483        0.08730755 
     667.5000        5.98852210       44.65700340        2.42583037        0.08275764 
     667.6000        5.99000190       45.05347502        2.42340464        0.08927127 
     667.7000        5.99148169       45.19514318        2.42125033        0.08277497 
     667.8000        5.99296149       44.82340721        2.44632669        0.10805223 
     667.9000        5.99444128       43.54420659        2.45382155        0.12326638 
     668.0000        5.99592108       43.08913116        2.44857926        0.12390665 
     668.1000        5.99740087       42.81950702        2.43631381        0.10020202 
     668.2000        5.99888091       42.55925563        2.42729494        0.08876612 
     668.3000        6.00036133       42.72223806        2.40990422        0.07729682 
     668.4000        6.00181861       44.60786719        2.40194526        0.07111743 
     668.5000        6.00320856       46.22563449        2.40859495        0.06191724 
     668.6000        6.00449493       45.81421670        2.41308871        0.07170821 
     668.7000        6.00539873       45.03974700        2.42508661        0.09776741 
     668.8000        6.00252397       45.22076216        2.43565538        0.09215955 
     668.9000        5.98641151       45.22861145        2.42752341        0.09563867 
     669.0000        5.98646589       44.50688798        2.41704028        0.08278963 
     669.1000        5.98743786       42.41849758        2.42430947        0.09203205 
     669.2000        5.98845599       43.11272191        2.43668223        0.09825329 
     669.3000        5.98948861       44.41463958        2.43780121        0.09422091 
     669.4000        5.99053676       46.04825866        2.42709900        0.08768935 
     669.5000        5.99156008       49.06109585        2.41898753        0.08908723 
     669.6000        5.99258230       53.31161816        2.41442753        0.09254425 
     669.7000        5.99360453       58.44905070        2.40124222        0.08522769 
     669.8000        5.99462676       63.16424238        2.37307404        0.08009104 
     669.9000        5.99564898       59.98862610        2.33397987        0.08493592 
