~Version Information Block
 VERS.                2.00:     CWLS LOG ASCII STANDARD - VERSION 2.000000
 WRAP.                  NO:     One Line Per Depth Step
#
~Well Information Block
#MNEM.UNIT                     Data                         Information
#----------   ------------------------------------------   ----------------
 STRT.M                                        350.0000:     START DEPTH
 STOP.M                                        665.0000:     STOP DEPTH
 STEP.M                                          0.1000:     STEP LENGTH OR LOG DEPTH INCREMENT
 NULL.                                        -999.2500:     NO VALUE
 COMP.                                             OPAB:     COMPANY
 WELL.                                     GRÖTLINGBO-2:     WELL
 FLD.                                        GRÖTLINGBO:     FIELD
 LOC.                                                  :     FIELD LOCATION
 PROV.                                                 :     PROVINCE
 STAT.                                                 :     STATE
 CTRY.                                                 :     COUNTRY
 LCC.                                                  :     SERVICE COMPANY
 DATE.                                                 :     LOG DATE
 WN.                                       GRÖTLINGBO-2:     WELL_NAME
 UWI.                                                  :     UNIQUE WELL ID
 API.                                                  :     API NUMBER
#
~CURVE INFORMATION BLOCK
#MNEM.UNIT       API CODE      Curve Description
#----------    -------------   -------------------
 DEPT.M                                               :    1 DEPTH
 SP  .MV       01 010 01 01                           :    2 Spontaneous Potential
 LLD .OHMM     10 220 10 01                           :    3 Latero-Log Deep (Resistivity)
~PARAMETER INFORMATION BLOCK
#MNEM.UNIT                               Value            Description
#----------                       --------------------    -------------------------------------------------
 FTYP.                                             DLL:    Log File Type
 RUN.                                                1:    Run Number
~OTHER INFORMATION BLOCK
 DIGITISED FROM HARDCOPY BY UKOGL
#
~A    DEPT             SP                LLD        
     350.0000      -12.91223404        7.44777009 
     350.1000      -12.93735225        7.49361240 
     350.2000      -13.02600473        7.49361240 
     350.3000      -13.39373336        7.44777009 
     350.4000      -13.27325567        7.36965859 
     350.5000      -13.04190616        7.26718818 
     350.6000      -12.67272865        7.22273103 
     350.7000      -12.81181949        7.62659684 
     350.8000      -13.17331967        8.01688825 
     350.9000      -12.89820070        8.16583728 
     351.0000      -12.25672089        8.16583728 
     351.1000      -13.30004221        8.21609942 
     351.2000      -13.84015827        8.26667092 
     351.3000      -12.94357002        8.07682868 
     351.4000      -12.77964867        7.45682962 
     351.5000      -13.03818137        7.54537720 
     351.6000      -12.88117046        7.53663371 
     351.7000      -12.25089638        7.62626928 
     351.8000      -11.99714821        7.68066061 
     351.9000      -12.92427704        7.63187932 
     352.0000      -13.04333411        7.58419576 
     352.1000      -12.77042630        7.49896244 
     352.2000      -12.94586295        7.40512788 
     352.3000      -12.41511272        7.35461733 
     352.4000      -13.87425254        7.71751143 
     352.5000      -14.24646464        8.01688825 
     352.6000      -13.72931122        8.11588263 
     352.7000      -13.22869339        8.11588263 
     352.8000      -13.94615478        8.26667092 
     352.9000      -14.63691837        8.26667092 
     353.0000      -12.61178656        7.89717272 
     353.1000      -13.37689377        7.31191897 
     353.2000      -13.36582669        7.13463096 
     353.3000      -13.70022297        7.09098473 
     353.4000      -13.53897666        7.26718818 
     353.5000      -13.90367839        7.45348501 
     353.6000      -13.58192373        7.62991250 
     353.7000      -13.09941022        7.77465291 
     353.8000      -13.17704338        7.86256359 
     353.9000      -13.29899450        7.83176749 
     354.0000      -12.98819165        7.69550259 
     354.1000      -12.14645212        7.49427917 
     354.2000      -11.88547089        7.30156044 
     354.3000      -12.65547412        7.13463096 
     354.4000      -12.21464228        7.33438751 
     354.5000      -11.46449520        7.60945645 
     354.6000      -11.54321651        7.89484158 
     354.7000      -12.05309381        8.21609942 
     354.8000      -12.76590417        8.42026077 
     354.9000      -12.42908215        8.31755370 
     355.0000      -12.80860240        8.16583728 
     355.1000      -13.28800244        7.91675623 
     355.2000      -12.65617963        7.69358407 
     355.3000      -12.75601237        7.47670311 
     355.4000      -12.94072662        7.35692509 
     355.5000      -12.74185600        7.31191897 
     355.6000      -13.08285126        7.35692509 
     355.7000      -12.91559859        7.40523700 
     355.8000      -13.33153695        7.42761246 
     355.9000      -14.17624683        7.45005553 
     356.0000      -13.99351815        7.47256642 
     356.1000      -13.58531296        7.49361240 
     356.2000      -13.67901983        7.44777009 
     356.3000      -13.65613477        7.40220823 
     356.4000      -14.06152267        7.31191897 
     356.5000      -13.99942198        7.26718818 
     356.6000      -13.87558721        7.31233521 
     356.7000      -13.34718781        7.40576637 
     356.8000      -13.34254397        7.40220823 
     356.9000      -13.67668229        7.35692509 
     357.0000      -13.63975005        7.40220823 
     357.1000      -13.27848901        7.41665053 
     357.2000      -13.20968702        7.43246230 
     357.3000      -13.04854951        7.44777009 
     357.4000      -12.64225329        7.49417504 
     357.5000      -13.01972088        7.49753820 
     357.6000      -12.51823254        7.39768875 
     357.7000      -11.85004462        7.17998696 
     357.8000      -11.59915017        7.04698785 
     357.9000      -11.96823919        7.00334719 
     358.0000      -11.53627819        7.00302905 
     358.1000      -11.06422381        7.09098473 
     358.2000      -11.68890875        6.96164155 
     358.3000      -11.83972947        6.87672615 
     358.4000      -11.52985048        6.87672615 
     358.5000      -11.53285837        6.96164155 
     358.6000      -11.38591419        7.04760550 
     358.7000      -12.07685532        7.12865264 
     358.8000      -12.37613897        7.20429239 
     358.9000      -12.83910619        7.28073474 
     359.0000      -12.97479071        7.35798818 
     359.1000      -12.26245382        7.43607950 
     359.2000      -12.68288846        7.51547679 
     359.3000      -12.54618252        7.59470166 
     359.4000      -12.76651816        7.67982072 
     359.5000      -13.35203467        7.72709134 
     359.6000      -12.57997878        7.63283928 
     359.7000      -11.83176339        7.53973687 
     359.8000      -11.77371202        7.31191897 
     359.9000      -11.71916783        7.22215481 
     360.0000      -11.53551096        7.22305866 
     360.1000      -11.46667215        7.17655652 
     360.2000      -12.51967133        7.17978943 
     360.3000      -13.27245744        7.37953193 
     360.4000      -11.77545388        7.49361240 
     360.5000      -11.71308679        7.53973687 
     360.6000      -12.01822913        7.65929032 
     360.7000      -11.65288996        7.78227727 
     360.8000      -11.46777830        7.82287771 
     360.9000      -12.16654786        7.82250724 
     361.0000      -11.92284812        7.87065612 
     361.1000      -11.65439576        7.82250724 
     361.2000      -12.15971530        7.63283928 
     361.3000      -12.37276634        7.49361240 
     361.4000      -11.91327070        7.58614525 
     361.5000      -11.71264151        7.56754772 
     361.6000      -12.11989553        7.54930461 
     361.7000      -12.60770882        7.53973687 
     361.8000      -12.30603204        7.53973687 
     361.9000      -12.30791291        7.58614525 
     362.0000      -12.42039475        7.63283928 
     362.1000      -12.47100656        7.82250724 
     362.2000      -11.71957541        7.87065612 
     362.3000      -11.84630532        7.77465291 
     362.4000      -12.52490535        7.63283928 
     362.5000      -12.34439296        7.63283928 
     362.6000      -12.50893011        7.60945645 
     362.7000      -12.49215059        7.58614525 
     362.8000      -11.99653101        7.63283928 
     362.9000      -11.75179646        7.67982072 
     363.0000      -11.70874725        7.77806669 
     363.1000      -11.55866680        7.82627194 
     363.2000      -11.30789072        7.63514647 
     363.3000      -11.60907454        7.35298321 
     363.4000      -11.00365420        7.17854584 
     363.5000      -11.12809638        7.09098473 
     363.6000      -11.29547436        7.17854584 
     363.7000      -11.04236824        7.32389361 
     363.8000      -10.61532737        7.40220823 
     363.9000      -10.05258954        7.49361240 
     364.0000      -10.20952700        7.54013400 
     364.1000      -10.50295022        7.54041059 
     364.2000      -10.39198050        7.49344814 
     364.3000      -10.29410695        7.40220823 
     364.4000      -10.19409452        7.22273103 
     364.5000      -10.12156149        7.17854584 
     364.6000      -10.00333238        7.22273103 
     364.7000       -9.98815471        7.26718818 
     364.8000      -10.10921742        7.32988828 
     364.9000      -10.82536977        7.44777009 
     365.0000      -11.04900275        7.49361240 
     365.1000      -10.62261220        7.49361240 
     365.2000      -10.00299119        7.53973687 
     365.3000      -10.24372307        7.53973687 
     365.4000       -9.96353928        7.49361240 
     365.5000      -10.14928455        7.49361240 
     365.6000       -8.96547938        7.44777009 
