~Version Information Block
 VERS.                2.00:     CWLS LOG ASCII STANDARD - VERSION 2.000000
 WRAP.                  NO:     One Line Per Depth Step
#
~Well Information Block
#MNEM.UNIT                     Data                         Information
#----------   ------------------------------------------   ----------------
 STRT.M                                        348.0000:     START DEPTH
 STOP.M                                        673.1000:     STOP DEPTH
 STEP.M                                          0.1000:     STEP LENGTH OR LOG DEPTH INCREMENT
 NULL.                                        -999.2500:     NO VALUE
 COMP.                                             OPAB:     COMPANY
 WELL.                                     GRÖTLINGBO-2:     WELL
 FLD.                                        GRÖTLINGBO:     FIELD
 LOC.                                                  :     FIELD LOCATION
 PROV.                                                 :     PROVINCE
 STAT.                                                 :     STATE
 CTRY.                                                 :     COUNTRY
 LCC.                                                  :     SERVICE COMPANY
 DATE.                                                 :     LOG DATE
 WN.                                       GRÖTLINGBO-2:     WELL_NAME
 UWI.                                                  :     UNIQUE WELL ID
 API.                                                  :     API NUMBER
#
~CURVE INFORMATION BLOCK
#MNEM.UNIT       API CODE      Curve Description
#----------    -------------   -------------------
 DEPT.M                                               :    1 DEPTH
 CALI.IN       70 280 01 01                           :    2 Caliper
 GR  .GAPI     35 310 01 01                           :    3 Gamma Ray
 RHOB.G/C3     42 350 01 01                           :    4 Bulk Density
 DRHO.G/C3                                            :    5 Delta Rho
~PARAMETER INFORMATION BLOCK
#MNEM.UNIT                               Value            Description
#----------                       --------------------    -------------------------------------------------
 FTYP.                                            CFDL:    Log File Type
 RUN.                                                1:    Run Number
~OTHER INFORMATION BLOCK
 DIGITISED FROM HARDCOPY BY UKOGL
#
~A    DEPT             CALI              GR                RHOB              DRHO       
# ...
     366.4000        6.94057726      118.93575675        2.55386472        0.06776342 
     366.5000        6.86817188      118.99845515        2.55065433        0.06872853 
     366.6000        6.86227388      112.85303717        2.54961711        0.04951905 
     366.7000        6.89460757      108.80841077        2.54761039        0.03558543 
     366.8000        6.88608528      109.12517702        2.55050000        0.03690838 
     366.9000        6.88316801      111.21875106        2.52933554        0.02242437 
     367.0000        6.88548367      113.69343934        2.50877847        0.02039742 
     367.1000        6.88836377      118.52666628        2.50265786        0.02549418 
     367.2000        6.89131873      122.15444747        2.51737183        0.03372380 
     367.3000        6.89435285      123.83941287        2.52456450        0.03956134 
     367.4000        6.89741415      122.66032511        2.53214918        0.04894728 
     367.5000        6.90045290      118.33980099        2.53894585        0.04814298 
     367.6000        6.90147218      112.70135071        2.52737549        0.03870786 
     367.7000        6.89839733      108.93000766        2.51777149        0.03731426 
     367.8000        6.89541491      106.87934268        2.52115530        0.03821430 
     367.9000        6.89244667      107.01269892        2.53341489        0.04305386 
     368.0000        6.88948511      109.83464364        2.55065634        0.04758191 
     368.1000        6.88652796      113.39616653        2.55227063        0.04224160 
     368.2000        6.88357680      117.83906045        2.54448204        0.03964189 
     368.3000        6.88062565      120.74860210        2.53245074        0.02943602 
     368.4000        6.87767493      123.94129111        2.52023278        0.02476113 
     368.5000        6.87474087      127.02583438        2.52021398        0.03357404 
     368.6000        6.87180839      125.28744697        2.51258034        0.02905572 
     368.7000        6.86886974      124.06540804        2.51118085        0.03285404 
     368.8000        6.86596491      124.30618602        2.52032412        0.03773059 
     368.9000        6.86259370      124.71022005        2.52935460        0.04680740 
     369.0000        6.84181409      121.55949978        2.53542903        0.04941987 
     369.1000        6.81841348      115.95339619        2.54658124        0.05285763 
     369.2000        6.80433184      109.64723851        2.55872429        0.05646462 
     369.3000        6.78056920      106.73190324        2.56162832        0.05632460 
     369.4000        6.78220409      109.10890618        2.56607261        0.05895296 
     369.5000        6.78279758      112.00834780        2.55509038        0.05186812 
     369.6000        6.78336369      113.78229235        2.54600321        0.04028878 
     369.7000        6.78490896      115.06124747        2.54538225        0.04140858 
     369.8000        6.76074500      116.28692724        2.54406830        0.04518402 
     369.9000        6.76206276      117.81019634        2.53232438        0.03295760 
     370.0000        6.76987098      119.63109792        2.52248501        0.02939901 
     370.1000        6.78214048      120.11861740        2.52521085        0.03221753 
     370.2000        6.78242726      120.28477245        2.52187429        0.03305490 
     370.3000        6.76639799      119.56974593        2.52900366        0.03631007 
     370.4000        6.76358681      117.26119405        2.52261943        0.03073240 
     370.5000        6.76322925      114.86612782        2.51684428        0.02766208 
     370.6000        6.76304925      113.12242061        2.52184756        0.02382736 
     370.7000        6.76302131      110.97911879        2.52655219        0.03219717 
     370.8000        6.76311148      109.12982559        2.54734408        0.04698251 
     370.9000        6.76327148      108.02258695        2.56454708        0.04758956 
     371.0000        6.76554240      107.29516579        2.55970625        0.04353962 
     371.1000        6.80445881      106.05511502        2.56785584        0.05648107 
     371.2000        6.80472904      105.83042297        2.57557740        0.06530973 
     371.3000        6.77749471      108.22612206        2.57052165        0.05895309 
     371.4000        6.76275778      111.61271968        2.56743343        0.05642718 
     371.5000        6.76278216      115.19737664        2.56927245        0.05363462 
     371.6000        6.76280287      117.06520945        2.56874767        0.05376505 
     371.7000        6.76282159      116.68096886        2.56891482        0.05933022 
     371.8000        6.76288426      116.68864024        2.57292632        0.05816641 
     371.9000        6.76303467      116.67130827        2.55949076        0.05785954 
     372.0000        6.77875444      117.10086704        2.56908115        0.06847830 
     372.1000        6.78009897      118.23950780        2.55886277        0.06457870 
     372.2000        6.80464269      116.49754305        2.55728690        0.06349980 
     372.3000        6.80332365      113.79960498        2.55926743        0.05731032 
     372.4000        6.80301966      111.06402421        2.54699186        0.04389076 
     372.5000        6.80288073      109.95505454        2.54920427        0.04169918 
     372.6000        6.80282543      110.62982452        2.54622941        0.03668393 
     372.7000        6.80278884      113.10682771        2.54803285        0.03047469 
     372.8000        6.80278884      115.73480760        2.55642825        0.03513825 
     372.9000        6.80278884      117.19175037        2.56888895        0.05364013 
     373.0000        6.80278884      116.60811072        2.55744456        0.05441894 
     373.1000        6.80279650      115.69029209        2.55262724        0.05223940 
     373.2000        6.80280998      115.12417337        2.54252512        0.05016202 
     373.3000        6.80282558      114.56891413        2.53980727        0.04973155 
     373.4000        6.80284509      113.21683648        2.54550332        0.04416291 
     373.5000        6.80291032      114.35740582        2.53087483        0.03097632 
     373.6000        6.79748291      118.46097742        2.51308768        0.01691305 
     373.7000        6.78619271      122.68876800        2.51178273        0.01652201 
     373.8000        6.77495876      124.35629497        2.52128382        0.02198406 
     373.9000        6.76372737      126.47317537        2.52100082        0.02453606 
     374.0000        6.75250410      127.98654008        2.52484717        0.02448538 
     374.1000        6.74129575      126.03033357        2.51223975        0.02526208 
     374.2000        6.73011812      121.88429329        2.51177080        0.02667118 
     374.3000        6.72281611      119.26401356        2.52678392        0.02965865 
     374.4000        6.72300184      118.73585114        2.53237823        0.03490661 
     374.5000        6.72307402      117.29518819        2.54971907        0.04513496 
     374.6000        6.72429607      117.14908970        2.55902920        0.05341246 
     374.7000        6.72801045      117.29875969        2.56054956        0.05347106 
     374.8000        6.73162499      117.36207354        2.56422317        0.05211125 
     374.9000        6.73520053      117.91965719        2.56801651        0.05392435 
     375.0000        6.73865804      116.89369992        2.56820202        0.05341264 
     375.1000        6.74197868      114.84263259        2.54673024        0.04190657 
     375.2000        6.74204325      112.26157384        2.53698893        0.03199997 
     375.3000        6.75566292      111.61342159        2.53029298        0.02212331 
     375.4000        6.78065289      110.35726781        2.51557584        0.01296523 
     375.5000        6.88251647      109.75599846        2.51387106        0.00988892 
