~Version Information Block
 VERS.                2.00:     CWLS LOG ASCII STANDARD - VERSION 2.000000
 WRAP.                  NO:     One Line Per Depth Step
#
~Well Information Block
#MNEM.UNIT                     Data                         Information
#----------   ------------------------------------------   ----------------
 STRT.M                                        348.0000:     START DEPTH
 STOP.M                                        673.1000:     STOP DEPTH
 STEP.M                                          0.1000:     STEP LENGTH OR LOG DEPTH INCREMENT
 NULL.                                        -999.2500:     NO VALUE
 COMP.                                             OPAB:     COMPANY
 WELL.                                     GRÖTLINGBO-2:     WELL
 FLD.                                        GRÖTLINGBO:     FIELD
 LOC.                                                  :     FIELD LOCATION
 PROV.                                                 :     PROVINCE
 STAT.                                                 :     STATE
 CTRY.                                                 :     COUNTRY
 LCC.                                                  :     SERVICE COMPANY
 DATE.                                                 :     LOG DATE
 WN.                                       GRÖTLINGBO-2:     WELL_NAME
 UWI.                                                  :     UNIQUE WELL ID
 API.                                                  :     API NUMBER
#
~CURVE INFORMATION BLOCK
#MNEM.UNIT       API CODE      Curve Description
#----------    -------------   -------------------
 DEPT.M                                               :    1 DEPTH
 CALI.IN       70 280 01 01                           :    2 Caliper
 GR  .GAPI     35 310 01 01                           :    3 Gamma Ray
 RHOB.G/C3     42 350 01 01                           :    4 Bulk Density
 DRHO.G/C3                                            :    5 Delta Rho
~PARAMETER INFORMATION BLOCK
#MNEM.UNIT                               Value            Description
#----------                       --------------------    -------------------------------------------------
 FTYP.                                            CFDL:    Log File Type
 RUN.                                                1:    Run Number
~OTHER INFORMATION BLOCK
 DIGITISED FROM HARDCOPY BY UKOGL
#
~A    DEPT             CALI              GR                RHOB              DRHO       
# ...
     412.4000        6.28950250       28.21599212        2.64300672        0.00781514 
     412.5000        6.28801601       28.02770557        2.66150187        0.01433376 
     412.6000        6.28652884       27.37645247        2.67800905        0.02302673 
     412.7000        6.28493472       26.34163353        2.69679351        0.03407668 
     412.8000        6.28486643       26.20254959        2.72364944        0.04764553 
     412.9000        6.28486172       26.41608944        2.73236552        0.03545000 
     413.0000        6.28486012       26.09659582        2.71759995        0.05628354 
     413.1000        6.28485978       25.32056545        2.71248900        0.04352219 
     413.2000        6.28486056       24.25504824        2.68936164        0.02760355 
     413.3000        6.28486056       24.90112964        2.66510452        0.01197719 
     413.4000        6.28486056       27.96015759        2.66115750        0.00650539 
     413.5000        6.28486056       32.86483818        2.66278282        0.00648474 
     413.6000        6.28486056       39.42265021        2.66791457        0.01493323 
     413.7000        6.28486194       44.79785948        2.65265296        0.01621638 
     413.8000        6.28486436       48.34744155        2.63843032        0.02034787 
     413.9000        6.28486478       51.19555194        2.63260134        0.02210628 
     414.0000        6.28486047       55.01149119        2.63215594        0.01773959 
     414.1000        6.28484123       59.10274816        2.63279783        0.01529866 
     414.2000        6.28382560       64.78189323        2.62881387        0.01454335 
     414.3000        6.28068427       73.63735090        2.61940302        0.01470011 
     414.4000        6.27759933       84.17008182        2.60457633        0.01858534 
     414.5000        6.27451183       91.32373324        2.60431723        0.02265915 
     414.6000        6.27141502       96.91618694        2.62141082        0.04395144 
     414.7000        6.26835695      106.23277104        2.60763724        0.04968927 
     414.8000        6.26512612      112.59847475        2.58851162        0.03285869 
     414.9000        6.26515661      115.42304739        2.56941155        0.03015960 
     415.0000        6.27393197      115.24195218        2.56143988        0.01967985 
     415.1000        6.30303364      114.26200088        2.54046926        0.01135660 
     415.2000        6.30352937      111.68258612        2.53078882        0.00765494 
     415.3000        6.28242270      109.82584397        2.52627091        0.00504332 
     415.4000        6.26565537      110.17650876        2.53380874        0.01042469 
     415.5000        6.27765700      113.18690318        2.53048763        0.01205911 
     415.6000        6.28509188      116.19303976        2.54786742        0.02137363 
     415.7000        6.28495209      118.22811719        2.54145621        0.02342187 
     415.8000        6.28496678      117.46391796        2.53224876        0.01534005 
     415.9000        6.28505887      113.69576873        2.52012808        0.00671500 
     416.0000        6.28618425      110.64210097        2.52021984       -0.00056020 
     416.1000        6.30539360      105.64425782        2.52714934       -0.00111571 
     416.2000        6.30492462       99.85461681        2.54057595        0.00739186 
     416.3000        6.30430029       94.92328758        2.56198061        0.01521085 
     416.4000        6.27572218       92.69849969        2.57611395        0.01298291 
     416.5000        6.26530855       93.42047790        2.58324607        0.02015849 
     416.6000        6.26588475       94.06233396        2.59276539        0.02831716 
     416.7000        6.28301173       93.29142535        2.60460646        0.03230132 
     416.8000        6.29931094       91.49940059        2.61306303        0.03856406 
     416.9000        6.30451165       88.21860000        2.62027359        0.04710397 
     417.0000        6.29820791       88.16956269        2.62669751        0.05877001 
     417.1000        6.28458772       89.45964426        2.64047096        0.07047576 
     417.2000        6.28480512       89.45570596        2.62294626        0.04719355 
     417.3000        6.28482282       88.10716232        2.60333371        0.03256914 
     417.4000        6.28483039       86.15821046        2.59692981        0.03820975 
     417.5000        6.28484162       84.36937537        2.60284124        0.03773704 
     417.6000        6.28486056       86.44663780        2.59060210        0.02569084 
     417.7000        6.28485662       90.41971891        2.58304116        0.03889022 
     417.8000        6.28485251       92.61664733        2.59901072        0.03917743 
     417.9000        6.28484725       92.17050499        2.59653887        0.03085647 
     418.0000        6.28484021       91.64034264        2.59786969        0.02316301 
     418.1000        6.28489198       91.02668479        2.57140283        0.01545205 
     418.2000        6.28922838       89.73471459        2.56365090        0.01104328 
     418.3000        6.29419511       84.66684121        2.56930429        0.00767303 
     418.4000        6.29917207       75.76522552        2.57236402        0.00873371 
     418.5000        6.30415311       67.65246022        2.58310698        0.01741226 
     418.6000        6.30913498       61.40521816        2.60344829        0.02477968 
     418.7000        6.31411365       55.88786560        2.61787563        0.02217709 
     418.8000        6.31909238       52.04658373        2.62462532        0.01669721 
     418.9000        6.32447972       50.99633522        2.64280342        0.01995787 
     419.0000        6.32836882       50.90588178        2.65353938        0.01966977 
     419.1000        6.33256576       49.88016429        2.66094010        0.02044498 
     419.2000        6.33674944       47.95581348        2.65194908        0.02306760 
     419.3000        6.34089151       46.23487342        2.64793773        0.03621455 
     419.4000        6.34403919       45.89641664        2.67791996        0.05034024 
     419.5000        6.33267839       48.73460063        2.69149028        0.05242942 
     419.6000        6.32205508       53.48362819        2.68213957        0.04641191 
     419.7000        6.31150150       55.49470662        2.66201803        0.02897574 
     419.8000        6.30734997       54.59735314        2.64609613        0.01030830 
     419.9000        6.31611003       52.73397636        2.64565974        0.00801704 
     420.0000        6.32459646       51.07480413        2.65837541        0.02505070 
     420.1000        6.33303729       49.86306622        2.66547562        0.02519399 
     420.2000        6.34145612       49.52481849        2.66219081        0.01785968 
     420.3000        6.34987907       51.01379025        2.67239620        0.01441796 
     420.4000        6.35828897       55.19238811        2.68086556        0.01360361 
     420.5000        6.36671095       60.26005656        2.66796789        0.01242853 
     420.6000        6.37515221       63.16745128        2.66871995        0.00898203 
     420.7000        6.38433383       65.96674071        2.66946342        0.00857252 
     420.8000        6.37672339       68.37850014        2.66807589        0.00966619 
     420.9000        6.36453545       69.44475693        2.68103795        0.01559201 
     421.0000        6.35235494       69.30863016        2.69592159        0.01638660 
     421.1000        6.34606529       65.69999583        2.69989853        0.01646671 
     421.2000        6.35151773       62.06827742        2.69596539        0.01753811 
     421.3000        6.35673769       60.64441714        2.70809010        0.02485565 
     421.4000        6.36193090       62.29161710        2.70274705        0.02657811 
     421.5000        6.36711036       63.88771121        2.71192945        0.02607400 
