~Version Information Block
 VERS.                2.00:     CWLS LOG ASCII STANDARD - VERSION 2.000000
 WRAP.                  NO:     One Line Per Depth Step
#
~Well Information Block
#MNEM.UNIT                     Data                         Information
#----------   ------------------------------------------   ----------------
 STRT.M                                        350.0000:     START DEPTH
 STOP.M                                        665.0000:     STOP DEPTH
 STEP.M                                          0.1000:     STEP LENGTH OR LOG DEPTH INCREMENT
 NULL.                                        -999.2500:     NO VALUE
 COMP.                                             OPAB:     COMPANY
 WELL.                                     GRÖTLINGBO-2:     WELL
 FLD.                                        GRÖTLINGBO:     FIELD
 LOC.                                                  :     FIELD LOCATION
 PROV.                                                 :     PROVINCE
 STAT.                                                 :     STATE
 CTRY.                                                 :     COUNTRY
 LCC.                                                  :     SERVICE COMPANY
 DATE.                                                 :     LOG DATE
 WN.                                       GRÖTLINGBO-2:     WELL_NAME
 UWI.                                                  :     UNIQUE WELL ID
 API.                                                  :     API NUMBER
#
~CURVE INFORMATION BLOCK
#MNEM.UNIT       API CODE      Curve Description
#----------    -------------   -------------------
 DEPT.M                                               :    1 DEPTH
 SP  .MV       01 010 01 01                           :    2 Spontaneous Potential
 LLD .OHMM     10 220 10 01                           :    3 Latero-Log Deep (Resistivity)
~PARAMETER INFORMATION BLOCK
#MNEM.UNIT                               Value            Description
#----------                       --------------------    -------------------------------------------------
 FTYP.                                             DLL:    Log File Type
 RUN.                                                1:    Run Number
~OTHER INFORMATION BLOCK
 DIGITISED FROM HARDCOPY BY UKOGL
#
~A    DEPT             SP                LLD        
# ...
     585.5000      -38.62656821       14.80819851 
     585.6000      -38.75161367       14.01256215 
     585.7000      -39.57223246       13.01781166 
     585.8000      -39.91554900       12.24301395 
     585.9000      -39.69455607       11.23514932 
     586.0000      -40.32866109       10.21578883 
     586.1000      -40.28055800        9.28891450 
     586.2000      -38.96031402        9.00824409 
     586.3000      -39.12779093        9.06369138 
     586.4000      -40.47092500        8.42026077 
     586.5000      -40.27054231        8.31755370 
     586.6000      -38.81099834        8.36874968 
     586.7000      -39.26704532        8.26667092 
     586.8000      -40.73991588        8.36874968 
     586.9000      -38.85349932        8.73605431 
     587.0000      -38.63899382        8.91438066 
     587.1000      -40.03600383        9.06369138 
     587.2000      -38.87221251        9.17561193 
     587.3000      -39.12815011        9.23208940 
     587.4000      -39.86104673        9.34608936 
     587.5000      -40.12566481        9.29242241 
     587.6000      -39.40105506        9.35403789 
     587.7000      -39.36271856        9.33851483 
     587.8000      -38.95335240        9.28891450 
     587.9000      -37.69253834        9.17561193 
     588.0000      -37.50581665        9.17561193 
     588.1000      -38.16700766        9.75628946 
     588.2000      -38.98583507        9.51973417 
     588.3000      -39.14840507        9.46149702 
     588.4000      -39.08641062        9.57832977 
     588.5000      -39.54769475        9.23208940 
     588.6000      -40.43509491        9.00824409 
     588.7000      -39.52558797        9.23208940 
     588.8000      -40.87659510        9.34608936 
     588.9000      -41.72168005        9.46149702 
     589.0000      -41.36179701        9.80841729 
     589.1000      -42.02503607       10.06026677 
     589.2000      -41.06218896       10.24718056 
     589.3000      -40.43708810       10.43756711 
     589.4000      -40.27067737       10.24718056 
     589.5000      -41.91514765        9.69660519 
     589.6000      -41.90932343        9.23208940 
     589.7000      -41.98431002        8.89836503 
     589.8000      -42.55743534        9.17561193 
     589.9000      -41.72474958        8.95286373 
     590.0000      -40.99769338        9.09499376 
     590.1000      -41.13843511        9.21781536 
     590.2000      -41.49127373        9.11693100 
     590.3000      -41.38465080        9.11947996 
     590.4000      -40.36697478        9.06369138 
     590.5000      -41.34788502        8.89836503 
     590.6000      -42.47849657        8.52423609 
     590.7000      -41.65825131        8.16583728 
     590.8000      -41.04801717        7.91910136 
     590.9000      -41.25812326        7.30819607 
     591.0000      -42.14478938        7.31324632 
     591.1000      -40.65587243        7.13149067 
     591.2000      -40.83758111        7.22546174 
     591.3000      -40.99290652        7.58614525 
     591.4000      -41.12018682        7.63283928 
     591.5000      -41.63211806        7.82250724 
     591.6000      -41.63103548        7.58614525 
     591.7000      -41.45036118        7.49361240 
     591.8000      -40.98087002        7.35692509 
     591.9000      -41.30358282        7.09098473 
     592.0000      -41.58849670        7.09098473 
     592.1000      -40.55290139        7.22273103 
     592.2000      -40.55665294        7.00449165 
     592.3000      -40.47871159        7.09098473 
     592.4000      -39.77928750        7.45354246 
     592.5000      -39.56805570        8.31392892 
     592.6000      -40.43479795        8.84481770 
     592.7000      -39.12740912        9.51653859 
     592.8000      -38.22653728       10.20971008 
     592.9000      -37.60847647       10.97684331 
     593.0000      -38.24234923       11.87308356 
     593.1000      -38.44352714       12.60726698 
     593.2000      -38.26588101       13.46006733 
     593.3000      -37.28949462       14.44915240 
     593.4000      -37.37234473       14.99105355 
     593.5000      -35.64508207       15.08332607 
     593.6000      -33.81529105       14.49355269 
     593.7000      -33.87826853       12.78036014 
     593.8000      -32.92199141       10.99642394 
     593.9000      -31.64374309        9.63728604 
     594.0000      -30.95257824        8.71164006 
     594.1000      -30.71390166        8.06623357 
     594.2000      -30.96003287        7.60212236 
     594.3000      -29.92004217        7.17854584 
     594.4000      -30.65157498        7.00449165 
     594.5000      -32.57571537        7.00449165 
     594.6000      -31.38082178        7.22273103 
     594.7000      -31.48211342        7.09098473 
     594.8000      -33.65848344        7.86100269 
     594.9000      -31.93999152        9.00824409 
     595.0000      -30.52289751        9.57832977 
     595.1000      -31.01349732       10.54378330 
     595.2000      -31.08779692       11.41277499 
     595.3000      -32.24223840       11.65979072 
     595.4000      -33.70710057       11.65741715 
     595.5000      -35.61541310       11.37079508 
     595.6000      -36.37710115       11.30430359 
     595.7000      -36.81725242       12.02640214 
     595.8000      -36.02503000       12.68801225 
     595.9000      -37.30191097       13.30042008 
     596.0000      -37.13223391       14.01148288 
     596.1000      -36.38399525       14.44915240 
     596.2000      -37.17713353       14.27290726 
     596.3000      -38.59640736       14.44915240 
     596.4000      -38.64695516       14.27290726 
     596.5000      -36.55176029       14.62189783 
     596.6000      -36.02573443       14.09187378 
     596.7000      -35.65167614       14.10644172 
     596.8000      -34.59787788       13.09793854 
     596.9000      -33.76153539       12.78036014 
     597.0000      -34.62732416       12.62447028 
     597.1000      -35.72513693       13.01633816 
     597.2000      -33.19169836       13.26754651 
     597.3000      -32.80115819       12.64515835 
     597.4000      -34.32042865       11.51433086 
     597.5000      -34.32200408       10.56645259 
     597.6000      -34.85274022        9.63728604 
     597.7000      -35.08023655        8.52423609 
     597.8000      -34.47518454        7.58614525 
     597.9000      -33.19619733        7.00449165 
     598.0000      -33.19494847        6.91905359 
     598.1000      -33.21623312        7.00449165 
     598.2000      -32.33250440        6.75129116 
     598.3000      -32.55525166        6.62814417 
     598.4000      -32.27587699        6.62814417 
     598.5000      -32.85885887        6.89785740 
     598.6000      -32.86365974        7.13463096 
     598.7000      -33.06963306        7.20060454 
     598.8000      -33.12518588        7.26718818 
     598.9000      -33.10364380        7.26718818 
     599.0000      -32.30596054        7.17854584 
     599.1000      -32.07801454        6.91905359 
     599.2000      -32.12254927        6.79284652 
     599.3000      -33.30265727        7.26968209 
     599.4000      -33.80598004        7.21893505 
     599.5000      -32.83576157        7.69792774 
     599.6000      -32.76731972        8.24134638 
     599.7000      -33.52384464        9.00824409 
     599.8000      -32.85583083        9.87676237 
     599.9000      -32.80022475       10.15329356 
     600.0000      -32.19462506       10.12218944 
     600.1000      -32.01041600       10.17597475 
     600.2000      -33.05032502       10.31025372 
     600.3000      -32.25103713       10.43756711 
     600.4000      -33.24425414       10.24718056 
     600.5000      -32.86201906       10.06026677 
     600.6000      -31.85367009        9.87676237 
     600.7000      -30.91665839        9.46730467 
     600.8000      -30.34956173        9.23021887 
     600.9000      -31.63214823        9.23138906 
     601.0000      -32.01495313        8.84026798 
     601.1000      -31.07615050        9.16426197 
