~Version Information Block
 VERS.                2.00:     CWLS LOG ASCII STANDARD - VERSION 2.000000
 WRAP.                  NO:     One Line Per Depth Step
#
~Well Information Block
#MNEM.UNIT                     Data                         Information
#----------   ------------------------------------------   ----------------
 STRT.M                                        348.0000:     START DEPTH
 STOP.M                                        673.1000:     STOP DEPTH
 STEP.M                                          0.1000:     STEP LENGTH OR LOG DEPTH INCREMENT
 NULL.                                        -999.2500:     NO VALUE
 COMP.                                             OPAB:     COMPANY
 WELL.                                     GRÖTLINGBO-2:     WELL
 FLD.                                        GRÖTLINGBO:     FIELD
 LOC.                                                  :     FIELD LOCATION
 PROV.                                                 :     PROVINCE
 STAT.                                                 :     STATE
 CTRY.                                                 :     COUNTRY
 LCC.                                                  :     SERVICE COMPANY
 DATE.                                                 :     LOG DATE
 WN.                                       GRÖTLINGBO-2:     WELL_NAME
 UWI.                                                  :     UNIQUE WELL ID
 API.                                                  :     API NUMBER
#
~CURVE INFORMATION BLOCK
#MNEM.UNIT       API CODE      Curve Description
#----------    -------------   -------------------
 DEPT.M                                               :    1 DEPTH
 CALI.IN       70 280 01 01                           :    2 Caliper
 GR  .GAPI     35 310 01 01                           :    3 Gamma Ray
 RHOB.G/C3     42 350 01 01                           :    4 Bulk Density
 DRHO.G/C3                                            :    5 Delta Rho
~PARAMETER INFORMATION BLOCK
#MNEM.UNIT                               Value            Description
#----------                       --------------------    -------------------------------------------------
 FTYP.                                            CFDL:    Log File Type
 RUN.                                                1:    Run Number
~OTHER INFORMATION BLOCK
 DIGITISED FROM HARDCOPY BY UKOGL
#
~A    DEPT             CALI              GR                RHOB              DRHO       
# ...
     596.4000        6.17613855       37.92585632        2.42613091        0.06082289 
     596.5000        6.17293180       37.64278712        2.42642054        0.05405841 
     596.6000        6.16976161       37.22787726        2.44510253        0.07659076 
     596.7000        6.16664419       36.06204241        2.47486703        0.08953793 
     596.8000        6.15984023       36.16722040        2.46619135        0.07943718 
     596.9000        6.15103042       36.53789950        2.45180218        0.07873603 
     597.0000        6.14537613       36.21846966        2.45025027        0.10140228 
     597.1000        6.14056164       36.24363062        2.45526492        0.11682641 
     597.2000        6.13290044       35.47128271        2.46697944        0.12607992 
     597.3000        6.12626667       33.90555099        2.46058242        0.11096186 
     597.4000        6.14188161       33.56938074        2.45180703        0.08791983 
     597.5000        6.15750300       33.52738367        2.45062353        0.09389225 
     597.6000        6.16551387       33.44891203        2.45081827        0.08675886 
     597.7000        6.16544474       33.37970012        2.43830972        0.06814658 
     597.8000        6.16548604       32.98470289        2.42448308        0.05524907 
     597.9000        6.16825855       31.54486713        2.43947157        0.07255082 
     598.0000        6.17623754       30.03684990        2.46108902        0.08821823 
     598.1000        6.18406378       29.74046810        2.46264981        0.09350153 
     598.2000        6.15556907       30.75779456        2.45850410        0.09139279 
     598.3000        6.13566308       31.78171176        2.47139333        0.10699482 
     598.4000        6.12602895       32.06683838        2.48820280        0.10721400 
     598.5000        6.12566451       31.97571004        2.48610173        0.09904470 
     598.6000        6.12570297       32.21989475        2.49534799        0.10733339 
     598.7000        6.12993535       31.09261287        2.49775434        0.11067705 
     598.8000        6.13391355       30.52309335        2.47717055        0.08000579 
     598.9000        6.13789205       29.76265148        2.44943744        0.05211561 
     599.0000        6.14184666       29.73334129        2.43608843        0.03790145 
     599.1000        6.14536568       29.72352956        2.43435778        0.03571597 
     599.2000        6.14541670       30.41615503        2.44154053        0.04427783 
     599.3000        6.14542435       31.24701947        2.44187668        0.04846394 
     599.4000        6.14547584       33.52717312        2.43705621        0.05440236 
     599.5000        6.14830276       35.97621093        2.41863709        0.04534543 
     599.6000        6.16041515       37.81185671        2.39478430        0.02708550 
     599.7000        6.17248643       39.23265951        2.40164966        0.02278270 
     599.8000        6.18454563       40.39759775        2.40332119        0.02230247 
     599.9000        6.19660796       41.27811489        2.40990771        0.03300333 
     600.0000        6.20869230       44.95721463        2.42527905        0.03735856 
     600.1000        6.22095689       50.06207102        2.43741295        0.03911328 
     600.2000        6.22710266       55.66820997        2.44641072        0.03543935 
     600.3000        6.23053044       58.49709695        2.43732638        0.02716784 
     600.4000        6.23394135       59.78010821        2.44713604        0.03941504 
     600.5000        6.23733653       57.02694950        2.45380666        0.06094717 
     600.6000        6.24079029       55.00544729        2.46442262        0.07832572 
     600.7000        6.24471490       54.39817836        2.45303596        0.08180146 
     600.8000        6.21961059       55.21023473        2.44958863        0.07948765 
     600.9000        6.17558976       57.47704336        2.44708914        0.09142214 
     601.0000        6.16578005       59.36891018        2.43564915        0.06991067 
     601.1000        6.16567512       62.36516274        2.43067160        0.05841071 
     601.2000        6.17603408       63.91281396        2.43987529        0.06462510 
     601.3000        6.20456930       63.03974581        2.46312611        0.07442594 
     601.4000        6.20513090       60.87537862        2.44859808        0.06710239 
     601.5000        6.20519957       60.46078024        2.42595605        0.05542680 
     601.6000        6.20519351       59.85289918        2.40652272        0.04360552 
     601.7000        6.20493794       58.07394140        2.39166963        0.04106181 
     601.8000        6.18942525       57.61652881        2.39308146        0.05498936 
     601.9000        6.17141648       59.93614074        2.39921243        0.04889696 
     602.0000        6.16584116       60.89622927        2.40169883        0.04876050 
     602.1000        6.18330340       60.08454643        2.41905504        0.04801698 
     602.2000        6.22656469       56.21242421        2.42488082        0.04792423 
     602.3000        6.22623481       54.43624686        2.42885683        0.06606205 
     602.4000        6.21842879       52.31263652        2.45428542        0.08111306 
     602.5000        6.21143693       49.89943477        2.44017282        0.06127000 
     602.6000        6.14481627       47.98646870        2.42743149        0.04440203 
     602.7000        6.14685647       53.42862823        2.42354919        0.02964025 
     602.8000        6.22004055       61.85777983        2.44096565        0.02921571 
     602.9000        6.24069084       73.80124747        2.45390424        0.03784807 
     603.0000        6.24394212       84.18676141        2.46596169        0.05263992 
     603.1000        6.24455347       93.85033043        2.46982181        0.04145105 
     603.2000        6.24481457       97.39505289        2.48690320        0.05326400 
     603.3000        6.24440952       96.84153890        2.50725154        0.05190225 
     603.4000        6.29691780       93.21187336        2.51998194        0.04626829 
     603.5000        6.32358788       91.00973553        2.51240094        0.04675016 
     603.6000        6.30833741       90.71219051        2.51105143        0.04004003 
     603.7000        6.30688281       90.91074387        2.51143886        0.03788960 
     603.8000        6.27426798       89.91466212        2.49786458        0.02412264 
     603.9000        6.35130459       88.48232246        2.49344184        0.01780128 
     604.0000        6.45080682       86.43593676        2.49012031        0.02145961 
     604.1000        6.48552329       84.43641204        2.49726937        0.02976114 
     604.2000        6.54579548       84.38980243        2.49179552        0.02621975 
     604.3000        6.63190297       85.33143800        2.50470605        0.04441329 
     604.4000        6.59770345       86.98624333        2.52626261        0.05939680 
     604.5000        6.50874659       90.48976613        2.53160467        0.05826281 
     604.6000        6.46368877       93.43897653        2.51859091        0.04206185 
     604.7000        6.46741002       96.38849726        2.53058218        0.05684513 
     604.8000        6.36571790       98.97990098        2.54638442        0.07133606 
     604.9000        6.32635827      102.56582832        2.56497645        0.08102996 
     605.0000        6.30718127      104.09205446        2.55633396        0.06552622 
     605.1000        6.31844758      101.89249118        2.53551528        0.05555425 
     605.2000        6.34207878      101.49606472        2.53289062        0.04833466 
     605.3000        6.30286663      103.23420288        2.52989907        0.04298483 
     605.4000        6.39405324      106.83783834        2.50781788        0.02546239 
     605.5000        6.40347520      109.71344461        2.51604297        0.02602385 
