~Version Information Block
 VERS.                2.00:     CWLS LOG ASCII STANDARD - VERSION 2.000000
 WRAP.                  NO:     One Line Per Depth Step
#
~Well Information Block
#MNEM.UNIT                     Data                         Information
#----------   ------------------------------------------   ----------------
 STRT.M                                        350.0000:     START DEPTH
 STOP.M                                        665.0000:     STOP DEPTH
 STEP.M                                          0.1000:     STEP LENGTH OR LOG DEPTH INCREMENT
 NULL.                                        -999.2500:     NO VALUE
 COMP.                                             OPAB:     COMPANY
 WELL.                                     GRÖTLINGBO-2:     WELL
 FLD.                                        GRÖTLINGBO:     FIELD
 LOC.                                                  :     FIELD LOCATION
 PROV.                                                 :     PROVINCE
 STAT.                                                 :     STATE
 CTRY.                                                 :     COUNTRY
 LCC.                                                  :     SERVICE COMPANY
 DATE.                                                 :     LOG DATE
 WN.                                       GRÖTLINGBO-2:     WELL_NAME
 UWI.                                                  :     UNIQUE WELL ID
 API.                                                  :     API NUMBER
#
~CURVE INFORMATION BLOCK
#MNEM.UNIT       API CODE      Curve Description
#----------    -------------   -------------------
 DEPT.M                                               :    1 DEPTH
 SP  .MV       01 010 01 01                           :    2 Spontaneous Potential
 LLD .OHMM     10 220 10 01                           :    3 Latero-Log Deep (Resistivity)
~PARAMETER INFORMATION BLOCK
#MNEM.UNIT                               Value            Description
#----------                       --------------------    -------------------------------------------------
 FTYP.                                             DLL:    Log File Type
 RUN.                                                1:    Run Number
~OTHER INFORMATION BLOCK
 DIGITISED FROM HARDCOPY BY UKOGL
#
~A    DEPT             SP                LLD        
# ...
     601.2000      -31.77461596        9.88729782 
     601.3000      -31.73272348       10.56615390 
     601.4000      -31.64454256       11.09810733 
     601.5000      -31.27486436       10.96273693 
     601.6000      -31.90737441       10.31025372 
     601.7000      -32.34545737        9.57402334 
     601.8000      -30.49614532        8.88792451 
     601.9000      -32.49215168        8.31618577 
     602.0000      -32.56378183        8.06900596 
     602.1000      -31.31548953        8.76289903 
     602.2000      -30.21471547        8.84392912 
     602.3000      -29.36290197        8.39446571 
     602.4000      -28.01812772        8.29207328 
     602.5000      -27.19063706        7.79854337 
     602.6000      -26.77340082        7.28951926 
     602.7000      -26.87560712        7.04760550 
     602.8000      -26.96720018        7.26718818 
     602.9000      -27.66441733        7.51663926 
     603.0000      -27.91089608        7.90836424 
     603.1000      -27.40508922        8.31755370 
     603.2000      -27.21016528        8.84392912 
     603.3000      -26.64626965        8.95562400 
     603.4000      -26.76020559        8.57981877 
     603.5000      -27.74563661        7.96699432 
     603.6000      -27.28270523        7.58614525 
     603.7000      -26.67139737        7.49361240 
     603.8000      -26.48337055        7.40220823 
     603.9000      -26.92632434        7.40220823 
     604.0000      -27.41631973        7.37953193 
     604.1000      -25.28432345        7.15655472 
     604.2000      -23.22309056        6.96788587 
     604.3000      -23.49500392        7.21700493 
     604.4000      -24.77197403        7.03874726 
     604.5000      -24.26877731        7.18840758 
     604.6000      -23.21018371        8.01973092 
     604.7000      -24.35755512        9.60317625 
     604.8000      -24.08721653       11.65651247 
     604.9000      -22.90123400       12.89853950 
     605.0000      -22.34269794       13.17855860 
     605.1000      -20.93092918       13.34129048 
     605.2000      -18.07401418       12.09367842 
     605.3000      -17.22941847        9.93755554 
     605.4000      -15.85368978        8.47208892 
     605.5000      -15.00505128        7.58614525 
     605.6000      -11.68937202        7.63283928 
     605.7000      -12.94387384        7.40220823 
     605.8000      -13.91863931        7.35692509 
     605.9000      -12.77739742        7.17854584 
     606.0000      -13.23651161        6.87672615 
     606.1000      -10.88668039        6.83465766 
     606.2000       -9.96745569        6.46743526 
     606.3000      -11.06397027        6.23364845 
     606.4000      -11.94498023        6.50724344 
     606.5000      -12.62068430        6.91905359 
     606.6000      -10.61465620        6.91905359 
     606.7000      -10.67481712        6.66894154 
     606.8000      -11.02837352        6.66894154 
     606.9000       -8.65482992        6.91905359 
     607.0000       -6.00456426        7.24492550 
     607.1000       -6.19552813        7.35692509 
     607.2000       -7.99380981        6.96164155 
     607.3000       -7.32269273        7.17854584 
     607.4000       -5.93648317        7.35692509 
     607.5000       -5.23886447        7.58614525 
     607.6000       -7.62930881        7.22028621 
     607.7000       -7.78356367        7.04322057 
     607.8000       -4.68337476        7.08648628 
     607.9000       -1.67529143        7.20060454 
     608.0000       -1.98956634        7.26718818 
     608.1000       -1.36164579        7.09098473 
     608.2000       -3.36794062        7.72709134 
     608.3000       -3.80620427        8.57670423 
     608.4000       -2.99987670        9.23208940 
     608.5000       -3.95268843        9.63728604 
     608.6000       -3.90922609        9.81634110 
     608.7000       -3.64717927        9.93755554 
     608.8000       -2.08995746        9.57395754 
     608.9000       -0.16670635        9.58199049 
     609.0000       -1.70698007        8.32374979 
     609.1000       -2.12759345        7.92554808 
     609.2000        0.74475707        9.49057093 
     609.3000       -1.46724678       11.37388353 
     609.4000       -2.18389176       13.63092141 
     609.5000       -3.69881870       19.08140727 
     609.6000       -5.52566793       24.42984464 
     609.7000       -6.46298673       29.10216587 
     609.8000       -5.28344706       26.60763582 
     609.9000       -3.32457875       19.69804171 
     610.0000       -4.11425793       14.72262727 
     610.1000       -5.92429440       11.47905727 
     610.2000       -4.10457206       10.69692958 
     610.3000       -5.15825756       11.37388353 
     610.4000       -7.75518111        9.93755554 
     610.5000       -9.97262469       10.21578883 
     610.6000       -9.10033936       10.43756711 
     610.7000       -7.99693604       10.92915312 
     610.8000       -9.52275326       11.40883393 
     610.9000      -10.31404215       12.01969513 
     611.0000       -8.41310828       12.54723986 
     611.1000       -6.59348486       12.43227918 
     611.2000       -5.22623905       12.28063508 
     611.3000       -6.83096762       11.90956794 
     611.4000       -6.71917218       11.37002680 
     611.5000       -4.83836990       10.75749593 
     611.6000       -5.01753068       10.31099547 
     611.7000       -4.51108780       11.94616444 
     611.8000       -5.23156197       14.99105355 
     611.9000       -7.22437285       18.46889580 
     612.0000       -8.79404573       21.39932460 
     612.1000       -8.87678533       22.47603907 
     612.2000       -7.23796308       19.75857113 
     612.3000       -8.09062835       16.08715482 
     612.4000       -7.26947225       13.17855860 
     612.5000       -7.58648485       11.54971284 
     612.6000       -7.67280934        9.67172230 
     612.7000       -8.82671073        8.44390512 
     612.8000      -10.18303527        8.48894027 
     612.9000      -11.39754356       10.69692958 
     613.0000      -13.59251953       13.30042008 
     613.1000      -17.17062985       16.63935714 
     613.2000      -20.31634501       20.59767012 
     613.3000      -21.98456721       24.22243473 
     613.4000      -22.60226468       24.36350984 
     613.5000      -25.17924921       21.93643905 
     613.6000      -27.44920739       20.61843702 
     613.7000      -28.85908262       20.61482704 
     613.8000      -26.82826511       20.65311639 
     613.9000      -24.91293953       20.37342607 
     614.0000      -23.52811481       19.14600843 
     614.1000      -22.12668011       16.94850654 
     614.2000      -18.00623506       15.74533363 
     614.3000      -14.34536735       14.09881188 
     614.4000      -11.92434195       12.31837181 
     614.5000      -10.78487394       11.80044977 
     614.6000      -10.19424559       11.94616444 
     614.7000       -6.71997364       11.65651247 
     614.8000       -7.15668501       10.89567220 
     614.9000       -3.83306665       10.69692958 
     615.0000       -3.24260463       10.93386353 
     615.1000       -4.21627164       11.09810733 
     615.2000       -1.67703204       11.33904019 
     615.3000       -3.60821042       10.69692958 
     615.4000       -4.34134707       10.83582562 
     615.5000       -5.60120623       10.83051819 
     615.6000       -7.17300942       10.83148586 
     615.7000       -8.64375268       11.10582081 
     615.8000      -10.27882392       11.08652687 
     615.9000      -10.09665009       11.60945517 
     616.0000       -8.28077578       11.98287338 
     616.1000       -9.04185245       10.96273693 
     616.2000       -7.75120597       10.37371511 
     616.3000       -7.98968853       10.36456907 
     616.4000       -9.05279069       10.96796475 
     616.5000      -10.41483543       10.82517402 
     616.6000      -11.47584993       11.03021446 
     616.7000       -9.61045355       11.58520354 
     616.8000      -10.37711481       11.90956794 
