~Version Information Block
 VERS.                2.00:     CWLS LOG ASCII STANDARD - VERSION 2.000000
 WRAP.                  NO:     One Line Per Depth Step
#
~Well Information Block
#MNEM.UNIT                     Data                         Information
#----------   ------------------------------------------   ----------------
 STRT.M                                        350.0000:     START DEPTH
 STOP.M                                        665.0000:     STOP DEPTH
 STEP.M                                          0.1000:     STEP LENGTH OR LOG DEPTH INCREMENT
 NULL.                                        -999.2500:     NO VALUE
 COMP.                                             OPAB:     COMPANY
 WELL.                                     GRÖTLINGBO-2:     WELL
 FLD.                                        GRÖTLINGBO:     FIELD
 LOC.                                                  :     FIELD LOCATION
 PROV.                                                 :     PROVINCE
 STAT.                                                 :     STATE
 CTRY.                                                 :     COUNTRY
 LCC.                                                  :     SERVICE COMPANY
 DATE.                                                 :     LOG DATE
 WN.                                       GRÖTLINGBO-2:     WELL_NAME
 UWI.                                                  :     UNIQUE WELL ID
 API.                                                  :     API NUMBER
#
~CURVE INFORMATION BLOCK
#MNEM.UNIT       API CODE      Curve Description
#----------    -------------   -------------------
 DEPT.M                                               :    1 DEPTH
 SP  .MV       01 010 01 01                           :    2 Spontaneous Potential
 LLD .OHMM     10 220 10 01                           :    3 Latero-Log Deep (Resistivity)
~PARAMETER INFORMATION BLOCK
#MNEM.UNIT                               Value            Description
#----------                       --------------------    -------------------------------------------------
 FTYP.                                             DLL:    Log File Type
 RUN.                                                1:    Run Number
~OTHER INFORMATION BLOCK
 DIGITISED FROM HARDCOPY BY UKOGL
#
~A    DEPT             SP                LLD        
# ...
     428.5000      -13.18802779        8.47124106 
     428.6000      -11.84139032        7.96998421 
     428.7000       -9.76743671        7.63084505 
     428.8000      -10.71472069        7.58388011 
     428.9000      -11.57141368        7.82425944 
     429.0000      -10.59878163        8.20941532 
     429.1000       -8.59420936       10.12218944 
     429.2000       -7.72675655       15.17616653 
     429.3000      -11.31062520       20.37419013 
     429.4000      -12.89439789       26.20256927 
     429.5000      -12.28427583       32.08393953 
     429.6000      -12.08481157       39.28542904 
     429.7000      -13.99420487       48.23200611 
     429.8000      -13.73246213       52.10172002 
     429.9000      -14.41016867       55.33692603 
     430.0000      -16.14757404       57.51105283 
     430.1000      -17.90590797       61.10952487 
     430.2000      -20.52728829       62.43617382 
     430.3000      -21.89082868       67.00132122 
     430.4000      -23.38685050       72.12119840 
     430.5000      -25.50609926       83.05334072 
     430.6000      -28.75701560      103.26742012 
     430.7000      -29.78834064      119.28613876 
     430.8000      -28.48403387      113.57173726 
     430.9000      -26.03404752       94.96866265 
     431.0000      -29.16429207       77.83857234 
     431.1000      -31.27754689       71.68229422 
     431.2000      -30.08244139       79.07467111 
     431.3000      -33.35529447       80.54383166 
     431.4000      -30.08991347       80.05110335 
     431.5000      -34.92779629      104.22232887 
     431.6000      -38.82413633      140.34971219 
     431.7000      -33.99284247      155.30428269 
     431.8000      -33.43661680      145.61338917 
     431.9000      -35.85311580      137.32718221 
     432.0000      -37.52512825      129.30688194 
     432.1000      -33.71797823      116.65852291 
     432.2000      -25.62045160       95.05748368 
     432.3000      -26.35498942       71.67999569 
     432.4000      -22.83068338       63.40137709 
     432.5000      -22.86967611       69.08888545 
     432.6000      -27.36603333       68.66623298 
     432.7000      -24.20869358       83.56454831 
     432.8000      -26.65818366      108.50505451 
     432.9000      -26.69201347      134.86554109 
     433.0000      -26.09673889      140.68266733 
     433.1000      -26.66611886      133.21690285 
     433.2000      -25.49645472      137.36754998 
     433.3000      -27.53354025      128.40133781 
     433.4000      -25.15403400      117.11029878 
     433.5000      -24.48539058      108.79664954 
     433.6000      -26.39033637      103.58474693 
     433.7000      -26.14442912      103.58474693 
     433.8000      -28.47984706      101.07318549 
     433.9000      -24.57726607       95.64257884 
     434.0000      -24.83270921       93.32358671 
     434.1000      -26.85723313       91.62131691 
     434.2000      -26.22619574       89.39982607 
     434.3000      -22.98549657       81.53840544 
     434.4000      -22.55730811       70.80567097 
     434.5000      -24.71663952       63.01351805 
     434.6000      -22.54574535       58.18207358 
     434.7000      -21.93259644       51.77914556 
     434.8000      -25.56419887       45.79895829 
     434.9000      -26.38402849       44.14340365 
     435.0000      -20.36899158       47.80907574 
     435.1000      -23.33904806       46.64987581 
     435.2000      -23.32123600       45.24032040 
     435.3000      -22.66326023       47.22591922 
     435.4000      -24.54005224       48.39943321 
     435.5000      -23.16446570       49.60210779 
     435.6000      -23.70278228       51.45228690 
     435.7000      -22.66652968       54.05918372 
     435.8000      -22.07080798       54.38360103 
     435.9000      -22.43880500       54.04350564 
     436.0000      -25.01562246       56.92077764 
     436.1000      -22.93919847       58.90051922 
     436.2000      -21.17436191       57.82614372 
     436.3000      -22.97189832       59.81106467 
     436.4000      -22.63763308       62.62803174 
     436.5000      -24.13154016       67.62087914 
     436.6000      -25.12784771       71.67999569 
     436.7000      -24.34118779       77.63230879 
     436.8000      -25.86724866       83.24017518 
     436.9000      -27.98038943       91.77716214 
     437.0000      -27.24410016       99.37743977 
     437.1000      -27.55587280      105.83350596 
     437.2000      -26.74731197      111.15855566 
     437.3000      -29.33595793      113.92072785 
     437.4000      -29.49709480      116.39387446 
     437.5000      -26.93393975      106.81214318 
     437.6000      -25.01359191       91.06082188 
     437.7000      -29.06204010       77.15739177 
     437.8000      -25.22924708       70.15693326 
     437.9000      -27.68252182       69.51413943 
     438.0000      -28.98348935       69.08888545 
     438.1000      -31.55449658       72.12119840 
     438.2000      -29.16144302       78.11014901 
     438.3000      -25.68000303       88.85292105 
     438.4000      -27.98717599       99.22955906 
     438.5000      -29.49470032      110.14009561 
     438.6000      -30.20554920      117.11029878 
     438.7000      -29.13625183      125.28806237 
     438.8000      -31.17247529      133.21690285 
     438.9000      -31.46596932      138.21307088 
     439.0000      -29.22158867      139.20466667 
     439.1000      -30.81645399      133.99492056 
     439.2000      -30.70973455      134.07470881 
     439.3000      -28.65840715      134.06091649 
     439.4000      -30.41021808      132.40194609 
     439.5000      -29.43497145      129.98686709 
     439.6000      -33.12649498      122.25027277 
     439.7000      -29.32152518      106.15871801 
     439.8000      -31.72272547       95.64257884 
     439.9000      -29.36636884       88.41280444 
     440.0000      -27.15524971       80.73711098 
     440.1000      -29.45347271       76.78717974 
     440.2000      -29.90161045       75.17669274 
     440.3000      -28.60913433       79.07467111 
     440.4000      -28.54481457       81.53840544 
     440.5000      -29.37639927       83.05334072 
     440.6000      -28.03029277       87.76912766 
     440.7000      -26.86444616       88.85292105 
     440.8000      -28.96794204       88.30936174 
     440.9000      -27.51341188       90.50375570 
     441.0000      -28.45881111       88.72833160 
     441.1000      -26.69978180       85.37868155 
     441.2000      -24.14910996       79.80587070 
     441.3000      -24.52539954       77.63230879 
     441.4000      -26.44929262       78.11014901 
     441.5000      -25.96758102       78.59093041 
     441.6000      -24.07673953       76.92102387 
     441.7000      -24.27685637       71.24149205 
     441.8000      -22.82099821       67.20720722 
     441.9000      -22.83413626       64.97683406 
     442.0000      -24.46255812       63.86996052 
     442.1000      -21.34146568       62.24490365 
     442.2000      -21.05906841       69.51413943 
     442.3000      -26.35598417       84.33726558 
     442.4000      -23.83008527      103.43544453 
     442.5000      -24.31305092      115.62275032 
     442.6000      -22.40510085      114.98017918 
     442.7000      -22.40881661      117.83113281 
     442.8000      -24.93915295      108.46335631 
     442.9000      -26.29754086       96.52698106 
     443.0000      -25.76543298       92.75267802 
     443.1000      -24.63000887       96.82359542 
     443.2000      -29.29367109      102.32126045 
     443.3000      -27.27608435      102.95106542 
     443.4000      -24.76652918       92.18526187 
     443.5000      -26.41093701       92.75267802 
     443.6000      -27.29848566       89.39982607 
     443.7000      -24.30187863       83.05334072 
     443.8000      -25.67311501       75.28659963 
     443.9000      -26.22486619       78.11014901 
     444.0000      -26.07965536       85.91353628 
     444.1000      -25.09828605       88.30936174 
