~Version Information Block
 VERS.                2.00:     CWLS LOG ASCII STANDARD - VERSION 2.000000
 WRAP.                  NO:     One Line Per Depth Step
#
~Well Information Block
#MNEM.UNIT                     Data                         Information
#----------   ------------------------------------------   ----------------
 STRT.M                                        348.0000:     START DEPTH
 STOP.M                                        673.1000:     STOP DEPTH
 STEP.M                                          0.1000:     STEP LENGTH OR LOG DEPTH INCREMENT
 NULL.                                        -999.2500:     NO VALUE
 COMP.                                             OPAB:     COMPANY
 WELL.                                     GRÖTLINGBO-2:     WELL
 FLD.                                        GRÖTLINGBO:     FIELD
 LOC.                                                  :     FIELD LOCATION
 PROV.                                                 :     PROVINCE
 STAT.                                                 :     STATE
 CTRY.                                                 :     COUNTRY
 LCC.                                                  :     SERVICE COMPANY
 DATE.                                                 :     LOG DATE
 WN.                                       GRÖTLINGBO-2:     WELL_NAME
 UWI.                                                  :     UNIQUE WELL ID
 API.                                                  :     API NUMBER
#
~CURVE INFORMATION BLOCK
#MNEM.UNIT       API CODE      Curve Description
#----------    -------------   -------------------
 DEPT.M                                               :    1 DEPTH
 CALI.IN       70 280 01 01                           :    2 Caliper
 GR  .GAPI     35 310 01 01                           :    3 Gamma Ray
 RHOB.G/C3     42 350 01 01                           :    4 Bulk Density
 DRHO.G/C3                                            :    5 Delta Rho
~PARAMETER INFORMATION BLOCK
#MNEM.UNIT                               Value            Description
#----------                       --------------------    -------------------------------------------------
 FTYP.                                            CFDL:    Log File Type
 RUN.                                                1:    Run Number
~OTHER INFORMATION BLOCK
 DIGITISED FROM HARDCOPY BY UKOGL
#
~A    DEPT             CALI              GR                RHOB              DRHO       
# ...
     430.8000        6.43556077       22.18434961        2.65395822        0.00307705 
     430.9000        6.43161623       26.05821652        2.66419308        0.01979386 
     431.0000        6.42761813       30.63295454        2.68141421        0.02232006 
     431.1000        6.42320236       36.54507285        2.66974790        0.01113502 
     431.2000        6.39985597       39.02476818        2.66107173        0.01131051 
     431.3000        6.37816600       39.98580354        2.66113170        0.01475395 
     431.4000        6.36399755       39.56979374        2.66365153        0.01150736 
     431.5000        6.36434352       37.27841112        2.65364749        0.01208247 
     431.6000        6.36442942       36.93533779        2.65557467        0.01489590 
     431.7000        6.36448702       37.02756033        2.65489657        0.00766477 
     431.8000        6.36452148       37.13469612        2.65179480        0.00394462 
     431.9000        6.36454183       37.32183860        2.64864630        0.01108371 
     432.0000        6.36454183       38.33151666        2.65579590        0.02034545 
     432.1000        6.36455381       40.45212085        2.65848215        0.01965084 
     432.2000        6.36457880       43.83683940        2.65188855        0.01108361 
     432.3000        6.36456234       45.83148119        2.63699172        0.01245458 
     432.4000        6.36451157       47.49128014        2.64421652        0.02341739 
     432.5000        6.36432761       47.17042862        2.65697908        0.03131608 
     432.6000        6.35549428       47.17927334        2.66411935        0.02649333 
     432.7000        6.32637939       47.41604547        2.65494889        0.01898178 
     432.8000        6.32920439       45.37866778        2.65397258        0.02031845 
     432.9000        6.33385151       44.40142211        2.66603285        0.02856467 
     433.0000        6.33859994       44.39290072        2.66437400        0.03039804 
     433.1000        6.34337253       44.82156906        2.65540476        0.02194496 
     433.2000        6.34817529       45.48315297        2.64151144        0.01055129 
     433.3000        6.35312337       45.39839620        2.62849020        0.00878350 
     433.4000        6.35820978       45.26145551        2.63523146        0.01154692 
     433.5000        6.36376749       45.20919563        2.64270231        0.00813989 
     433.6000        6.38689110       44.69116021        2.64667696        0.01005808 
     433.7000        6.45453310       43.82523523        2.66097920        0.01354444 
     433.8000        6.42358359       41.48782985        2.66134765        0.01098134 
     433.9000        6.37822579       38.37484118        2.65412766        0.00758329 
     434.0000        6.36489173       37.39441896        2.65218544        0.01022965 
     434.1000        6.36633721       36.12495539        2.65671669        0.01543759 
     434.2000        6.36840312       34.98588723        2.66353641        0.02178961 
     434.3000        6.37051844       34.49275878        2.67782435        0.03776260 
     434.4000        6.37265847       34.55721407        2.68044655        0.03116260 
     434.5000        6.37477505       35.03570489        2.66990124        0.02565557 
     434.6000        6.37689211       34.68640928        2.67667348        0.02994112 
     434.7000        6.37896908       33.11958236        2.67898817        0.02192445 
     434.8000        6.38099022       31.93246280        2.67227707        0.01851212 
     434.9000        6.38286617       31.49746108        2.66659614        0.01869029 
     435.0000        6.37655143       32.93995602        2.67123489        0.02042009 
     435.1000        6.35260566       35.38466753        2.67839458        0.02430954 
     435.2000        6.34491508       38.62717405        2.68497016        0.02750135 
     435.3000        6.34470672       40.69787047        2.67299061        0.03061559 
     435.4000        6.34464765       41.19934108        2.66656948        0.02914921 
     435.5000        6.34464444       41.72112882        2.66237407        0.02394905 
     435.6000        6.34471976       40.90611150        2.65702574        0.01950687 
     435.7000        6.34503014       40.08519680        2.65581595        0.01961136 
     435.8000        6.33650346       38.89091989        2.66608147        0.02332924 
     435.9000        6.32550761       37.11182420        2.66160669        0.00945808 
     436.0000        6.33438913       35.64015921        2.65920506        0.00641856 
     436.1000        6.34415364       34.71836630        2.65202732        0.00986959 
     436.2000        6.30544750       34.79546693        2.65835812        0.01323966 
     436.3000        6.31813385       34.86133704        2.66729791        0.01870753 
     436.4000        6.36194854       35.52024940        2.68289323        0.02512829 
     436.5000        6.35588118       36.70641419        2.69797563        0.03663365 
     436.6000        6.34674415       38.12202731        2.71342205        0.04781951 
     436.7000        6.33745716       38.88236164        2.69806285        0.03745734 
     436.8000        6.32789586       39.01385494        2.68122133        0.02232850 
     436.9000        6.32476173       38.23278983        2.66250013        0.00687761 
     437.0000        6.32470148       37.06142351        2.66304936        0.00550852 
     437.1000        6.32468827       35.95856759        2.65733956        0.00914775 
     437.2000        6.32468956       35.64588325        2.67563327        0.01703795 
     437.3000        6.32469697       36.66527973        2.67960170        0.02447475 
     437.4000        6.32468682       39.19866899        2.68362518        0.02928071 
     437.5000        6.32471657       43.57822414        2.67813029        0.03413572 
     437.6000        6.32484626       44.07807924        2.67185030        0.03410995 
     437.7000        6.32514052       43.75831408        2.65695183        0.02282493 
     437.8000        6.32584522       42.36538759        2.64465378        0.01588015 
     437.9000        6.33955334       40.52555767        2.65492072        0.02393348 
     438.0000        6.36083830       39.28679878        2.67832444        0.02972738 
     438.1000        6.35705665       38.15169749        2.66747273        0.02638819 
     438.2000        6.35284721       38.31761567        2.65244334        0.01946659 
     438.3000        6.34848902       37.88611349        2.64877752        0.01532698 
     438.4000        6.34406331       36.99774714        2.64894775        0.01470101 
     438.5000        6.33959845       36.07339240        2.65638739        0.01453306 
     438.6000        6.33516204       36.23569010        2.65243473        0.01503957 
     438.7000        6.33071058       37.06008326        2.65945421        0.01689555 
     438.8000        6.32615835       39.28385023        2.67454467        0.02096633 
     438.9000        6.32558927       41.25939243        2.67958980        0.02298597 
     439.0000        6.32693183       42.37768439        2.67373907        0.01287655 
     439.1000        6.32829881       44.32599041        2.69504595        0.02806355 
     439.2000        6.32967391       45.07469091        2.68366868        0.02007162 
     439.3000        6.33105244       45.41733485        2.68236208        0.01244333 
     439.4000        6.33242891       46.22195312        2.68932512        0.01432590 
     439.5000        6.33380272       47.94430252        2.69309773        0.01783441 
     439.6000        6.33517654       49.25111289        2.68909359        0.02611447 
     439.7000        6.33655035       49.13719939        2.69208688        0.02530180 
     439.8000        6.33792437       46.97101966        2.68529503        0.02129402 
     439.9000        6.33934159       43.41674653        2.68207389        0.01868858 
