~Version Information Block
 VERS.                2.00:     CWLS LOG ASCII STANDARD - VERSION 2.000000
 WRAP.                  NO:     One Line Per Depth Step
#
~Well Information Block
#MNEM.UNIT                     Data                         Information
#----------   ------------------------------------------   ----------------
 STRT.M                                        348.0000:     START DEPTH
 STOP.M                                        673.1000:     STOP DEPTH
 STEP.M                                          0.1000:     STEP LENGTH OR LOG DEPTH INCREMENT
 NULL.                                        -999.2500:     NO VALUE
 COMP.                                             OPAB:     COMPANY
 WELL.                                     GRÖTLINGBO-2:     WELL
 FLD.                                        GRÖTLINGBO:     FIELD
 LOC.                                                  :     FIELD LOCATION
 PROV.                                                 :     PROVINCE
 STAT.                                                 :     STATE
 CTRY.                                                 :     COUNTRY
 LCC.                                                  :     SERVICE COMPANY
 DATE.                                                 :     LOG DATE
 WN.                                       GRÖTLINGBO-2:     WELL_NAME
 UWI.                                                  :     UNIQUE WELL ID
 API.                                                  :     API NUMBER
#
~CURVE INFORMATION BLOCK
#MNEM.UNIT       API CODE      Curve Description
#----------    -------------   -------------------
 DEPT.M                                               :    1 DEPTH
 CALI.IN       70 280 01 01                           :    2 Caliper
 GR  .GAPI     35 310 01 01                           :    3 Gamma Ray
 RHOB.G/C3     42 350 01 01                           :    4 Bulk Density
 DRHO.G/C3                                            :    5 Delta Rho
~PARAMETER INFORMATION BLOCK
#MNEM.UNIT                               Value            Description
#----------                       --------------------    -------------------------------------------------
 FTYP.                                            CFDL:    Log File Type
 RUN.                                                1:    Run Number
~OTHER INFORMATION BLOCK
 DIGITISED FROM HARDCOPY BY UKOGL
#
~A    DEPT             CALI              GR                RHOB              DRHO       
# ...
     449.2000        6.38446215       55.35281084        2.63580472        0.00548224 
     449.3000        6.38447361       56.06357641        2.64265779        0.00566685 
     449.4000        6.38448556       56.37803659        2.64676307        0.00644792 
     449.5000        6.38449870       54.29963844        2.64245360        0.00383888 
     449.6000        6.38450585       51.46446046        2.63740089       -0.00070224 
     449.7000        6.38435306       48.25220778        2.65205984        0.00125127 
     449.8000        6.37175142       47.36235737        2.65659650        0.00681810 
     449.9000        6.35735972       50.26042950        2.65967211        0.01429766 
     450.0000        6.34502346       51.83364985        2.67300001        0.02185036 
     450.1000        6.35127880       53.22846303        2.67586070        0.02499530 
     450.2000        6.35725596       54.45879445        2.66966890        0.01925830 
     450.3000        6.36311912       53.06962806        2.65904502        0.01323909 
     450.4000        6.36847748       52.19765109        2.65073050        0.00882477 
     450.5000        6.37331765       51.59683078        2.64864526        0.00840761 
     450.6000        6.37817963       49.99435045        2.65246019        0.01154467 
     450.7000        6.38305579       50.94408310        2.66368601        0.02357405 
     450.8000        6.38793915       53.10502132        2.68163443        0.03542129 
     450.9000        6.39283058       56.77462829        2.70034900        0.05469656 
     451.0000        6.39773637       60.31332357        2.70767911        0.06040919 
     451.1000        6.40273562       61.43086968        2.70667823        0.05920397 
     451.2000        6.40435171       58.17167094        2.69709716        0.04565313 
     451.3000        6.40438232       53.69146199        2.68356055        0.03208658 
     451.4000        6.40438920       52.12886381        2.67299736        0.02201934 
     451.5000        6.40439073       53.66728353        2.66549891        0.01555592 
     451.6000        6.40438592       54.96019278        2.66636710        0.01054823 
     451.7000        6.40437920       55.58864803        2.67036555        0.01170003 
     451.8000        6.40436588       54.06967162        2.68133583        0.02344533 
     451.9000        6.40417115       52.12413056        2.69563116        0.03249695 
     452.0000        6.39966794       49.34548444        2.67865475        0.01820185 
     452.1000        6.39546829       49.22924906        2.67415578        0.01864273 
     452.2000        6.39127448       50.35062729        2.67546255        0.02268195 
     452.3000        6.38709000       49.77118655        2.68779952        0.03163625 
     452.4000        6.38435428       49.88230635        2.70494079        0.04436598 
     452.5000        6.38442253       49.87121047        2.70008616        0.03237335 
     452.6000        6.38444109       49.44473147        2.68312032        0.01459904 
     452.7000        6.38445157       49.00669864        2.65951275        0.01158205 
     452.8000        6.38445822       49.40801101        2.65644464        0.01719867 
     452.9000        6.38446215       51.08684275        2.66755176        0.02489834 
     453.0000        6.38446215       53.18159854        2.69010036        0.03048435 
     453.1000        6.38446215       53.99811972        2.72337830        0.04305987 
     453.2000        6.38446215       52.58747339        2.76291214        0.05142972 
     453.3000        6.38446215       49.42254487        2.74611066        0.04608238 
     453.4000        6.38446215       45.41810669        2.72363891        0.02799245 
     453.5000        6.38446215       44.36946598        2.71148834        0.02803843 
     453.6000        6.38446215       43.50472496        2.71385323        0.03400563 
     453.7000        6.38446215       44.58765240        2.70274551        0.02837859 
     453.8000        6.38446215       48.02059663        2.68605921        0.02003416 
     453.9000        6.38446215       53.09383651        2.68076689        0.01540674 
     454.0000        6.38446215       54.74580172        2.67917067        0.01386398 
     454.1000        6.38446215       54.86400664        2.66380251        0.01174473 
     454.2000        6.38446215       54.88158544        2.65679801        0.01623704 
     454.3000        6.38446215       55.80898057        2.65182827        0.01926237 
     454.4000        6.38446146       57.00612665        2.64797564        0.02487938 
     454.5000        6.38446063       57.52926956        2.66281078        0.03275634 
     454.6000        6.38445944       57.11687450        2.67260423        0.03270021 
     454.7000        6.38445759       56.60888127        2.66937141        0.02669742 
     454.8000        6.38446078       55.33187196        2.68752129        0.04405798 
     454.9000        6.38514526       52.63617451        2.67191377        0.03726677 
     455.0000        6.38596346       48.38617644        2.65711174        0.02492868 
     455.1000        6.38678388       48.28873682        2.65722449        0.01750419 
     455.2000        6.38760500       49.07391927        2.67606485        0.02134992 
     455.3000        6.38842654       49.38353401        2.66862790        0.01790123 
     455.4000        6.38924765       48.24198658        2.65687486        0.00970900 
     455.5000        6.39006859       47.42308769        2.65857383        0.00959062 
     455.6000        6.39088953       46.47712763        2.67327724        0.01681366 
     455.7000        6.39171048       45.54721780        2.66937349        0.02458238 
     455.8000        6.39253142       45.54954341        2.67181340        0.02504793 
     455.9000        6.39335236       45.77798134        2.67693785        0.01192575 
     456.0000        6.39417331       45.95147165        2.67725407        0.00976972 
     456.1000        6.39499425       48.97758166        2.66033487        0.00887661 
     456.2000        6.39581519       55.65079598        2.65700374        0.01141770 
     456.3000        6.39663614       61.27102861        2.64910409        0.01239228 
     456.4000        6.39745708       68.65567389        2.64771268        0.00863426 
     456.5000        6.39827802       74.54617216        2.65653726        0.00974206 
     456.6000        6.39909896       75.71709606        2.66445115        0.01110957 
     456.7000        6.39991991       75.74366031        2.67521827        0.01195820 
     456.8000        6.40074456       76.18895606        2.66731779        0.01223054 
     456.9000        6.40157204       76.90328516        2.66307294        0.00962849 
     457.0000        6.40240282       76.34377382        2.65847725        0.00418564 
     457.1000        6.40324055       74.46035606        2.65104785        0.00256450 
     457.2000        6.40412835       71.19998099        2.65732705        0.00466010 
     457.3000        6.40248913       66.63705387        2.66953962        0.01348331 
     457.4000        6.39911320       63.80422068        2.68017040        0.02268889 
     457.5000        6.39573879       62.91106064        2.68592573        0.03027316 
     457.6000        6.39236518       60.64703791        2.70283535        0.03446927 
     457.7000        6.38898975       58.36579529        2.69957012        0.02716892 
     457.8000        6.38564772       57.98233558        2.70837136        0.03226033 
     457.9000        6.38038770       60.58921654        2.70608205        0.02781209 
     458.0000        6.37436785       62.45114235        2.71051774        0.02797158 
     458.1000        6.36837829       64.91982290        2.71737602        0.02395639 
     458.2000        6.36773648       69.99241604        2.70817659        0.01951552 
     458.3000        6.37807491       73.99563628        2.70893467        0.01790280 
