~Version Information Block
 VERS.                2.00:     CWLS LOG ASCII STANDARD - VERSION 2.000000
 WRAP.                  NO:     One Line Per Depth Step
#
~Well Information Block
#MNEM.UNIT                     Data                         Information
#----------   ------------------------------------------   ----------------
 STRT.M                                        350.0000:     START DEPTH
 STOP.M                                        665.0000:     STOP DEPTH
 STEP.M                                          0.1000:     STEP LENGTH OR LOG DEPTH INCREMENT
 NULL.                                        -999.2500:     NO VALUE
 COMP.                                             OPAB:     COMPANY
 WELL.                                     GRÖTLINGBO-2:     WELL
 FLD.                                        GRÖTLINGBO:     FIELD
 LOC.                                                  :     FIELD LOCATION
 PROV.                                                 :     PROVINCE
 STAT.                                                 :     STATE
 CTRY.                                                 :     COUNTRY
 LCC.                                                  :     SERVICE COMPANY
 DATE.                                                 :     LOG DATE
 WN.                                       GRÖTLINGBO-2:     WELL_NAME
 UWI.                                                  :     UNIQUE WELL ID
 API.                                                  :     API NUMBER
#
~CURVE INFORMATION BLOCK
#MNEM.UNIT       API CODE      Curve Description
#----------    -------------   -------------------
 DEPT.M                                               :    1 DEPTH
 SP  .MV       01 010 01 01                           :    2 Spontaneous Potential
 LLD .OHMM     10 220 10 01                           :    3 Latero-Log Deep (Resistivity)
~PARAMETER INFORMATION BLOCK
#MNEM.UNIT                               Value            Description
#----------                       --------------------    -------------------------------------------------
 FTYP.                                             DLL:    Log File Type
 RUN.                                                1:    Run Number
~OTHER INFORMATION BLOCK
 DIGITISED FROM HARDCOPY BY UKOGL
#
~A    DEPT             SP                LLD        
# ...
     475.6000      -33.24649527       54.38443130 
     475.7000      -29.03235078       69.08888545 
     475.8000      -26.65325000       80.05110335 
     475.9000      -32.41863066       87.23219847 
     476.0000      -29.87997775       91.06082188 
     476.1000      -28.09687846       92.75267802 
     476.2000      -29.16272678       94.40315571 
     476.3000      -30.15973862       98.40399115 
     476.4000      -29.35524353      105.11654125 
     476.5000      -32.05278733      113.92072785 
     476.6000      -34.91292975      131.18884926 
     476.7000      -31.15347813      152.47145339 
     476.8000      -34.24568984      155.38523253 
     476.9000      -33.14072502      150.70245620 
     477.0000      -30.44867339      137.19973821 
     477.1000      -32.08273772      124.46430862 
     477.2000      -33.26466774      127.18990987 
     477.3000      -37.90551243      136.90646932 
     477.4000      -33.44514019      148.63749658 
     477.5000      -34.52344357      168.80082124 
     477.6000      -36.05977497      217.51198157 
     477.7000      -37.42769434      304.26991084 
     477.8000      -34.20900402      389.77397400 
     477.9000      -33.46473716      443.78317176 
     478.0000      -31.19492024      480.49526690 
     478.1000      -28.42312176      486.07829250 
     478.2000      -28.52631318      435.24332428 
     478.3000      -31.84052097      415.01851025 
     478.4000      -34.02642448      413.28075943 
     478.5000      -34.18586158      375.78396561 
     478.6000      -33.69090082      324.32401641 
     478.7000      -32.86094634      287.07184075 
     478.8000      -32.15501153      248.17626074 
     478.9000      -31.31461088      213.15374252 
     479.0000      -29.83003457      187.78867514 
     479.1000      -28.35640628      158.03030997 
     479.2000      -27.39500271      136.67394333 
     479.3000      -25.64966354      120.75911147 
     479.4000      -29.52434281      110.14009561 
     479.5000      -27.96399968       99.22955906 
     479.6000      -26.70394647       92.75267802 
     479.7000      -27.68231695       88.30936174 
     479.8000      -27.15978827       85.11712813 
     479.9000      -26.83509904       82.06957562 
     480.0000      -25.93964133       79.40153536 
     480.1000      -27.44356698       76.58622821 
     480.2000      -22.31394917       67.41372588 
     480.3000      -24.40824540       56.77136538 
     480.4000      -17.82148456       51.46238573 
     480.5000      -19.99679477       47.51660288 
     480.6000      -25.09603548       43.60495957 
     480.7000      -23.52273655       44.96356195 
     480.8000      -23.38211229       45.24032040 
     480.9000      -19.99315866       46.36449438 
     481.0000      -23.86722920       47.83842186 
     481.1000      -25.77512234       49.60210779 
     481.2000      -24.47245313       46.93701382 
     481.3000      -20.28575093       39.04509974 
     481.4000      -17.12687025       28.20482735 
     481.5000      -19.41637632       19.06086869 
     481.6000      -19.55411906       14.67320833 
     481.7000      -22.29760682       11.45091988 
     481.8000      -21.51981996       12.62447028 
     481.9000      -23.81059116       14.18559249 
     482.0000      -28.68564592       15.08332607 
     482.1000      -34.71022820       16.58838328 
     482.2000      -38.36944644       17.80127655 
     482.3000      -39.13762147       14.80819851 
     482.4000      -41.45546089       10.60683696 
     482.5000      -43.35896229        8.57655998 
     482.6000      -43.40025674        7.08608449 
     482.7000      -42.84289920        5.93502557 
     482.8000      -42.26516421        5.41312598 
     482.9000      -41.25918286        5.07535019 
     483.0000      -40.88939539        4.66343017 
     483.1000      -39.26865074        4.36543823 
     483.2000      -36.80660571        4.39336273 
     483.3000      -36.82091822        4.36594281 
     483.4000      -39.96303443        4.13104579 
     483.5000      -41.87734696        4.36493459 
     483.6000      -42.03586308        4.90691699 
     483.7000      -42.14365493        5.28187695 
     483.8000      -40.99008753        5.54763642 
     483.9000      -41.31238127        6.00831264 
     484.0000      -41.82579073        6.36897700 
     484.1000      -42.08498024        6.50724344 
     484.2000      -42.99149306        5.86263244 
     484.3000      -42.92041753        4.93093878 
     484.4000      -40.64677408        4.93183060 
     484.5000      -39.88802053        5.47608703 
     484.6000      -40.70082073        6.11994353 
     484.7000      -41.89543542        6.23364845 
     484.8000      -42.01700205        6.31546532 
     484.9000      -42.77508354        6.50724344 
     485.0000      -43.22647453        6.58759638 
     485.1000      -43.42340110        6.33001467 
     485.2000      -43.68935965        6.06387121 
     485.3000      -44.24550478        6.15761283 
     485.4000      -44.84663126        6.23364845 
     485.5000      -44.40776254        6.19551400 
     485.6000      -44.32040789        6.43145094 
     485.7000      -44.30779297        6.50676801 
     485.8000      -43.52803830        6.68943429 
     485.9000      -43.10143985        6.81372002 
     486.0000      -43.16748646        6.70999002 
     486.1000      -43.20152638        6.27201763 
     486.2000      -43.00111816        5.91684391 
     486.3000      -42.41178386        5.63339755 
     486.4000      -41.54987104        5.41205128 
     486.5000      -40.39409414        5.41204664 
     486.6000      -37.28265460        5.31269285 
     486.7000      -34.34702467        6.02677537 
     486.8000      -30.65972864        6.79284652 
     486.9000      -26.34803073        8.34311242 
     487.0000      -23.52523264        9.46149702 
     487.1000      -21.75243206       10.31025372 
     487.2000      -22.58735210       11.51433086 
     487.3000      -22.55882835       12.78036014 
     487.4000      -22.48341434       13.08262284 
     487.5000      -27.32505302       11.25012545 
     487.6000      -31.09098853       11.50751087 
     487.7000      -34.18769259       10.89567220 
     487.8000      -36.41609673       10.06026677 
     487.9000      -39.44325500        9.51973417 
     488.0000      -42.41402997        9.28891450 
     488.1000      -43.34890179        9.75628946 
     488.2000      -44.42489877        9.69660519 
     488.3000      -46.18037416        9.28891450 
     488.4000      -45.62890511        9.69660519 
     488.5000      -45.21383466        9.75628946 
     488.6000      -45.89198202        9.69660519 
     488.7000      -45.33079128        9.63728604 
     488.8000      -45.26353062        9.81634110 
     488.9000      -45.58469716       10.18469993 
     489.0000      -44.49381475       10.18210023 
     489.1000      -44.81734565       10.48557281 
     489.2000      -43.40745541       11.33904019 
     489.3000      -43.02144516       12.05663003 
     489.4000      -39.72420001       12.39419350 
     489.5000      -35.08396163       11.09810733 
     489.6000      -29.68830969        9.43251219 
     489.7000      -26.07320515        8.04152306 
     489.8000      -22.04188895        7.11277437 
     489.9000      -18.13176357        6.56741560 
     490.0000      -13.97112753        6.27201763 
     490.1000      -10.89532062        6.98303374 
     490.2000      -10.45299781        7.77465291 
     490.3000       -8.51411871        8.81683618 
     490.4000       -8.33538027        9.46688383 
     490.5000       -9.93571554        9.46254755 
     490.6000      -10.53025560        8.76160464 
     490.7000      -10.12413319        7.85090118 
     490.8000      -11.26314621        7.22273103 
     490.9000      -12.64663300        6.77203697 
     491.0000      -13.01453706        6.27201763 
     491.1000      -13.29285441        6.36897700 
     491.2000      -12.83470790        6.56741560 
