~Version Information Block
 VERS.                2.00:     CWLS LOG ASCII STANDARD - VERSION 2.000000
 WRAP.                  NO:     One Line Per Depth Step
#
~Well Information Block
#MNEM.UNIT                     Data                         Information
#----------   ------------------------------------------   ----------------
 STRT.M                                        350.0000:     START DEPTH
 STOP.M                                        665.0000:     STOP DEPTH
 STEP.M                                          0.1000:     STEP LENGTH OR LOG DEPTH INCREMENT
 NULL.                                        -999.2500:     NO VALUE
 COMP.                                             OPAB:     COMPANY
 WELL.                                     GRÖTLINGBO-2:     WELL
 FLD.                                        GRÖTLINGBO:     FIELD
 LOC.                                                  :     FIELD LOCATION
 PROV.                                                 :     PROVINCE
 STAT.                                                 :     STATE
 CTRY.                                                 :     COUNTRY
 LCC.                                                  :     SERVICE COMPANY
 DATE.                                                 :     LOG DATE
 WN.                                       GRÖTLINGBO-2:     WELL_NAME
 UWI.                                                  :     UNIQUE WELL ID
 API.                                                  :     API NUMBER
#
~CURVE INFORMATION BLOCK
#MNEM.UNIT       API CODE      Curve Description
#----------    -------------   -------------------
 DEPT.M                                               :    1 DEPTH
 SP  .MV       01 010 01 01                           :    2 Spontaneous Potential
 LLD .OHMM     10 220 10 01                           :    3 Latero-Log Deep (Resistivity)
~PARAMETER INFORMATION BLOCK
#MNEM.UNIT                               Value            Description
#----------                       --------------------    -------------------------------------------------
 FTYP.                                             DLL:    Log File Type
 RUN.                                                1:    Run Number
~OTHER INFORMATION BLOCK
 DIGITISED FROM HARDCOPY BY UKOGL
#
~A    DEPT             SP                LLD        
# ...
     569.8000      -12.70115118       13.25967490 
     569.9000      -13.11373215       13.34129048 
     570.0000      -12.92166506       13.25967490 
     570.1000      -14.62057664       12.81963246 
     570.2000      -16.58836216       12.20550807 
     570.3000      -15.59869594       11.54971284 
     570.4000      -16.89108635       11.06410882 
     570.5000      -15.47200930       11.30430359 
     570.6000      -15.56943020       11.37388353 
     570.7000      -17.74185819       10.92915312 
     570.8000      -18.28355060       10.43756711 
     570.9000      -17.97579172       10.06026677 
     571.0000      -18.15773589        9.75628946 
     571.1000      -18.48085563        9.17561193 
     571.2000      -19.27464829        9.23208940 
     571.3000      -18.72004715        8.95313599 
     571.4000      -17.82617356        8.89836503 
     571.5000      -19.10102088        8.42026077 
     571.6000      -19.41582820        8.11588263 
     571.7000      -20.02273181        7.87065612 
     571.8000      -20.80923088        7.91910136 
     571.9000      -21.32236080        7.67982072 
     572.0000      -22.43422348        7.33438751 
     572.1000      -22.93618871        7.31191897 
     572.2000      -23.36972277        7.26718818 
     572.3000      -22.73682327        7.58614525 
     572.4000      -21.02917797        7.96845598 
     572.5000      -19.98358303        8.26667092 
     572.6000      -19.84192587        8.73605431 
     572.7000      -19.53835008        8.89836503 
     572.8000      -18.44439672        8.84392912 
     572.9000      -18.28298324        8.70700173 
     573.0000      -22.08097084        8.49713243 
     573.1000      -21.79128806        8.19092980 
     573.2000      -19.96493551        7.72478968 
     573.3000      -19.55321533        7.65211993 
     573.4000      -19.04576697        7.94941344 
     573.5000      -17.69242663        8.26667092 
     573.6000      -17.22312239        8.65601259 
     573.7000      -17.35861039        8.87110532 
     573.8000      -17.71965888        9.11947996 
     573.9000      -17.29746861        9.23208940 
     574.0000      -16.56795159        8.89836503 
     574.1000      -15.36884748        8.73605431 
     574.2000      -16.74871493        8.68261135 
     574.3000      -15.42038396        8.84392912 
     574.4000      -13.83310875        8.89836503 
     574.5000      -14.13035656        8.73605431 
     574.6000      -15.89984753        8.68261135 
     574.7000      -14.57569827        8.81683618 
     574.8000      -13.60328698        8.95313599 
     574.9000      -15.29055783        8.89836503 
     575.0000      -15.84164864        8.84392912 
     575.1000      -15.65411203        8.73605431 
     575.2000      -14.36565859        8.73605431 
     575.3000      -13.57748822        9.23208940 
     575.4000      -13.13776095        9.17561193 
     575.5000      -13.04487309        9.11947996 
     575.6000      -13.62225221        9.23208940 
     575.7000      -14.55040300        9.38030902 
     575.8000      -15.56244762        9.62991948 
     575.9000      -15.40418895        9.87757139 
     576.0000      -14.37085037        9.95300548 
     576.1000      -13.13144521        9.99872291 
     576.2000      -11.95638110        9.87676237 
     576.3000      -11.06935969        9.93755554 
     576.4000      -11.06873130       10.09118060 
     576.5000      -11.17227593       10.12218944 
     576.6000      -11.85709983        9.66690011 
     576.7000      -13.17115714        9.11947996 
     576.8000      -13.88405996        8.68261135 
     576.9000      -14.31844628        8.49671825 
     577.0000      -15.35783023        8.26421932 
     577.1000      -15.93206006        8.26569579 
     577.2000      -14.82444113        8.57880182 
     577.3000      -14.28477553        8.68261135 
     577.4000      -13.48285446        8.84392912 
     577.5000      -14.39116470        8.73605431 
     577.6000      -16.38013625        8.26667092 
     577.7000      -18.33926180        7.96784479 
     577.8000      -19.44903074        7.87065612 
     577.9000      -19.70147605        7.59395234 
     578.0000      -19.11267657        7.39871898 
     578.1000      -18.50412669        7.54063742 
     578.2000      -19.00089976        7.63415606 
     578.3000      -18.91539859        7.58501438 
     578.4000      -17.81831857        7.54134087 
     578.5000      -18.24560017        7.53769755 
     578.6000      -18.51555544        7.67982072 
     578.7000      -18.68026362        7.72709134 
     578.8000      -18.74096799        7.67982072 
     578.9000      -17.97877303        7.87065612 
     579.0000      -17.49483489        7.79854337 
     579.1000      -19.67422102        7.49361240 
     579.2000      -19.69567509        7.44777009 
     579.3000      -18.35077930        7.35692509 
     579.4000      -16.91791289        7.44777009 
     579.5000      -15.83302732        7.66216889 
     579.6000      -14.91338855        7.87065612 
     579.7000      -13.43881915        8.22036742 
     579.8000      -13.04480256        8.27228046 
     579.9000      -11.74503952        8.62258219 
     580.0000      -11.85267676        8.84392912 
     580.1000      -11.76224925        8.84392912 
     580.2000      -11.69826403        8.73605431 
     580.3000      -12.04626861        8.73605431 
     580.4000      -10.20838190        8.67700492 
     580.5000       -9.75302262        8.72955968 
     580.6000      -10.94900710        8.86952466 
     580.7000      -10.36865674        8.94734428 
     580.8000      -10.50050388        8.89836503 
     580.9000       -9.87447424        9.11947996 
     581.0000       -9.17142140        9.23208940 
     581.1000      -10.56797998        9.11947996 
     581.2000      -10.46915306        9.09154288 
     581.3000       -9.00499247        8.95313599 
     581.4000       -9.58688858        8.89836503 
     581.5000      -10.23360088        9.26045836 
     581.6000       -9.79417456        9.34608936 
     581.7000       -8.71572981        9.40361615 
     581.8000       -7.93583289        9.57832977 
     581.9000       -8.71315873        9.81634110 
     582.0000       -7.76534284        9.93755554 
     582.1000       -7.50977587        9.81634110 
     582.2000       -8.14914807        9.69431011 
     582.3000       -7.39234475        9.52643928 
     582.4000       -6.06707033        9.92034217 
     582.5000       -7.56290808       10.86229384 
     582.6000       -9.87820525       11.33904019 
     582.7000      -11.39458587       12.28063508 
     582.8000      -12.81799178       13.17855860 
     582.9000      -15.07771396       14.62757386 
     583.0000      -17.85220151       16.38162776 
     583.1000      -20.63852773       18.24361938 
     583.2000      -22.26258289       18.13201372 
     583.3000      -23.86062708       18.24361938 
     583.4000      -27.70520435       18.46889580 
     583.5000      -29.69988799       19.07469716 
     583.6000      -30.42944606       16.46186117 
     583.7000      -29.98892935       14.53953759 
     583.8000      -30.44422978       12.85902546 
     583.9000      -31.34671279       10.82901773 
     584.0000      -31.28690222        9.20380734 
     584.1000      -29.69568989        8.16583728 
     584.2000      -29.52563539        8.89836503 
     584.3000      -30.12557624       10.12218944 
     584.4000      -30.33590793       11.80370871 
     584.5000      -29.43876244       13.18495892 
     584.6000      -31.13981048       14.96103323 
     584.7000      -33.13545701       17.15779060 
     584.8000      -32.98703532       18.35591200 
     584.9000      -33.03491634       16.43639673 
     585.0000      -34.47818156       15.25619877 
     585.1000      -35.15433244       14.44915240 
     585.2000      -36.11319453       14.53808942 
     585.3000      -37.09822147       14.80819851 
     585.4000      -38.61502548       15.08332607 
