~Version Information Block
 VERS.                2.00:     CWLS LOG ASCII STANDARD - VERSION 2.000000
 WRAP.                  NO:     One Line Per Depth Step
#
~Well Information Block
#MNEM.UNIT                     Data                         Information
#----------   ------------------------------------------   ----------------
 STRT.M                                        350.0000:     START DEPTH
 STOP.M                                        665.0000:     STOP DEPTH
 STEP.M                                          0.1000:     STEP LENGTH OR LOG DEPTH INCREMENT
 NULL.                                        -999.2500:     NO VALUE
 COMP.                                             OPAB:     COMPANY
 WELL.                                     GRÖTLINGBO-2:     WELL
 FLD.                                        GRÖTLINGBO:     FIELD
 LOC.                                                  :     FIELD LOCATION
 PROV.                                                 :     PROVINCE
 STAT.                                                 :     STATE
 CTRY.                                                 :     COUNTRY
 LCC.                                                  :     SERVICE COMPANY
 DATE.                                                 :     LOG DATE
 WN.                                       GRÖTLINGBO-2:     WELL_NAME
 UWI.                                                  :     UNIQUE WELL ID
 API.                                                  :     API NUMBER
#
~CURVE INFORMATION BLOCK
#MNEM.UNIT       API CODE      Curve Description
#----------    -------------   -------------------
 DEPT.M                                               :    1 DEPTH
 SP  .MV       01 010 01 01                           :    2 Spontaneous Potential
 LLD .OHMM     10 220 10 01                           :    3 Latero-Log Deep (Resistivity)
~PARAMETER INFORMATION BLOCK
#MNEM.UNIT                               Value            Description
#----------                       --------------------    -------------------------------------------------
 FTYP.                                             DLL:    Log File Type
 RUN.                                                1:    Run Number
~OTHER INFORMATION BLOCK
 DIGITISED FROM HARDCOPY BY UKOGL
#
~A    DEPT             SP                LLD        
# ...
     507.0000      -10.13541561       11.44389174 
     507.1000       -9.87233768       10.79584356 
     507.2000      -10.65403375        9.78626922 
     507.3000       -9.57382059        8.60305928 
     507.4000       -8.92206363        7.72709134 
     507.5000       -8.91382190        7.49361240 
     507.6000       -9.71385559        7.82250724 
     507.7000      -13.06327323        7.44777009 
     507.8000      -12.92180790        8.11588263 
     507.9000      -13.73865674        7.63283928 
     508.0000      -15.37277966        7.87065612 
     508.1000      -16.14753182        8.26581052 
     508.2000      -15.60689648        8.90371708 
     508.3000      -13.10129288        8.78473434 
     508.4000      -13.70086449        8.57326442 
     508.5000      -13.97096164        8.63340988 
     508.6000      -13.89892571        8.73815783 
     508.7000      -12.53475934        8.34311242 
     508.8000      -10.89937878        8.04152306 
     508.9000      -11.11060313        8.21609942 
     509.0000      -12.57058658        8.21609942 
     509.1000      -13.00137638        7.87065612 
     509.2000      -12.24670201        7.82250724 
     509.3000      -12.48662182        7.91910136 
     509.4000      -12.17282065        7.92147755 
     509.5000      -12.78101777        7.63224408 
     509.6000      -11.14691690        7.63086481 
     509.7000      -11.10056887        7.77870567 
     509.8000      -13.29249458        7.81898855 
     509.9000      -11.39400047        7.72946607 
     510.0000       -9.75141120        7.53973687 
     510.1000      -10.43329804        7.53973687 
     510.2000      -10.67215442        7.72709134 
     510.3000       -9.96082528        7.87065612 
     510.4000       -8.08986193        7.87065612 
     510.5000       -8.23980235        7.67982072 
     510.6000       -9.20788931        7.49041771 
     510.7000       -8.11956584        7.49053661 
     510.8000       -8.29666294        7.49597683 
     510.9000       -9.68704493        7.40056040 
     511.0000       -9.05607784        7.70604636 
     511.1000       -9.06023634        7.82250724 
     511.2000       -9.45987753        7.87065612 
     511.3000       -9.32755243        7.82250724 
     511.4000       -8.12037914        7.77465291 
     511.5000       -6.94465746        7.67982072 
     511.6000       -7.30903519        7.53973687 
     511.7000       -7.61323013        7.44777009 
     511.8000       -6.47055205        7.49361240 
     511.9000       -6.62796716        7.44777009 
     512.0000       -7.11203629        7.39539803 
     512.1000       -7.28516139        7.36867199 
     512.2000       -6.68888670        7.35692509 
     512.3000       -6.91623206        7.40220823 
     512.4000       -6.56531045        7.45560881 
     512.5000       -6.44825393        7.49361240 
     512.6000       -6.52450759        7.58614525 
     512.7000       -7.19830772        7.53973687 
     512.8000       -7.77988759        7.63452838 
     512.9000       -7.47552169        7.63534541 
     513.0000       -8.67323233        7.27129473 
     513.1000       -8.23573972        7.13104624 
     513.2000       -9.07092683        7.21796753 
     513.3000       -8.49758148        7.87054385 
     513.4000       -8.44696997        8.26667092 
     513.5000       -8.51147328        8.31755370 
     513.6000       -7.33759415        8.36874968 
     513.7000       -8.12773523        8.06623357 
     513.8000       -8.25213566        7.58348567 
     513.9000       -6.82100863        7.09098473 
     514.0000       -6.57610876        6.87993455 
     514.1000       -8.00637481        6.58859593 
     514.2000       -7.97917047        6.66748016 
     514.3000       -8.25992579        7.04760550 
     514.4000       -8.07314330        7.48212544 
     514.5000       -9.05902048        7.89484158 
     514.6000       -9.03520656        8.06623357 
     514.7000       -9.59950946        7.84654475 
     514.8000       -9.79367517        7.56290547 
     514.9000       -8.97102497        7.33047548 
     515.0000       -7.41248411        7.15274413 
     515.1000       -6.00969806        7.04664635 
     515.2000       -6.67234333        6.75176136 
     515.3000       -6.70207858        6.50603672 
     515.4000       -6.65601400        6.77064512 
     515.5000       -8.42729073        7.00473442 
     515.6000       -9.33360503        7.37797283 
     515.7000       -9.84844601        7.81365182 
     515.8000      -11.28831673        8.02609316 
     515.9000      -11.65243586        8.29771249 
     516.0000      -11.68854625        8.60422910 
     516.1000      -11.27501230        8.89836503 
     516.2000      -10.23175142        8.89836503 
     516.3000      -10.10438866        8.57670423 
     516.4000       -9.49212858        8.36874968 
     516.5000      -10.48554305        8.52423609 
     516.6000      -10.50795351        8.62949532 
     516.7000       -9.54433170        8.45910205 
     516.8000       -9.86016710        8.27048432 
     516.9000       -9.52539202        8.26215586 
     517.0000       -8.38756353        8.37280346 
     517.1000       -8.88635119        8.31697572 
     517.2000      -10.34429832        8.37040235 
     517.3000      -10.14710842        8.61301337 
     517.4000      -11.22468267        8.92570850 
     517.5000      -10.99283003        9.00824409 
     517.6000       -9.82036599        8.72099032 
     517.7000       -9.92004604        8.42510616 
     517.8000       -8.32401588        8.11588263 
     517.9000       -7.75086135        7.65629396 
     518.0000       -7.56683979        7.39469202 
     518.1000       -7.46419386        7.45241381 
     518.2000       -7.66489244        8.09436184 
     518.3000       -7.55948717        8.72968971 
     518.4000       -6.69907765        9.43251219 
     518.5000       -6.25942604        9.69660519 
     518.6000       -7.00539235        9.57832977 
     518.7000       -9.45724321        9.57832977 
     518.8000      -10.45223247        9.69660519 
     518.9000       -8.59496508        9.69660519 
     519.0000       -8.77646264        8.49812251 
     519.1000      -10.17756596        8.21609942 
     519.2000      -10.98887402        8.26834372 
     519.3000      -10.00561305        8.26454294 
     519.4000      -10.07931018        8.26582039 
     519.5000      -10.90652561        8.26710305 
     519.6000      -11.67689358        8.16434853 
     519.7000       -9.83008972        8.21138229 
     519.8000       -9.26881515        8.16085740 
     519.9000       -9.06039916        8.11238084 
     520.0000       -8.62783655        8.11914381 
     520.1000       -7.94661624        7.85347405 
     520.2000       -7.30731304        7.60945645 
     520.3000       -7.19155476        7.26718818 
     520.4000       -6.44474692        7.26718818 
     520.5000       -5.84529097        7.40220823 
     520.6000       -6.91359175        7.26718818 
     520.7000       -8.60843482        7.26718818 
     520.8000       -9.88932172        7.49361240 
     520.9000      -10.82054423        7.26718818 
     521.0000      -11.48179822        7.20060454 
     521.1000      -13.21094150        7.09429409 
     521.2000      -14.50490861        7.17074204 
     521.3000      -13.57007420        6.99429427 
     521.4000      -12.65170332        6.97054002 
     521.5000      -13.57401176        6.96164155 
     521.6000      -14.86160760        7.09098473 
     521.7000      -16.20167815        6.93180255 
     521.8000      -17.29319281        6.64851156 
     521.9000      -17.83125665        6.37679820 
     522.0000      -18.62375358        6.15761283 
     522.1000      -18.20407761        6.15761283 
     522.2000      -18.89371113        6.32742567 
     522.3000      -19.92805693        6.38854800 
     522.4000      -19.03985608        6.54729664 
     522.5000      -19.59420429        6.42787062 
     522.6000      -18.43502389        6.46743526 
