~Version Information Block
 VERS.                2.00:     CWLS LOG ASCII STANDARD - VERSION 2.000000
 WRAP.                  NO:     One Line Per Depth Step
#
~Well Information Block
#MNEM.UNIT                     Data                         Information
#----------   ------------------------------------------   ----------------
 STRT.M                                        348.0000:     START DEPTH
 STOP.M                                        673.1000:     STOP DEPTH
 STEP.M                                          0.1000:     STEP LENGTH OR LOG DEPTH INCREMENT
 NULL.                                        -999.2500:     NO VALUE
 COMP.                                             OPAB:     COMPANY
 WELL.                                     GRÖTLINGBO-2:     WELL
 FLD.                                        GRÖTLINGBO:     FIELD
 LOC.                                                  :     FIELD LOCATION
 PROV.                                                 :     PROVINCE
 STAT.                                                 :     STATE
 CTRY.                                                 :     COUNTRY
 LCC.                                                  :     SERVICE COMPANY
 DATE.                                                 :     LOG DATE
 WN.                                       GRÖTLINGBO-2:     WELL_NAME
 UWI.                                                  :     UNIQUE WELL ID
 API.                                                  :     API NUMBER
#
~CURVE INFORMATION BLOCK
#MNEM.UNIT       API CODE      Curve Description
#----------    -------------   -------------------
 DEPT.M                                               :    1 DEPTH
 CALI.IN       70 280 01 01                           :    2 Caliper
 GR  .GAPI     35 310 01 01                           :    3 Gamma Ray
 RHOB.G/C3     42 350 01 01                           :    4 Bulk Density
 DRHO.G/C3                                            :    5 Delta Rho
~PARAMETER INFORMATION BLOCK
#MNEM.UNIT                               Value            Description
#----------                       --------------------    -------------------------------------------------
 FTYP.                                            CFDL:    Log File Type
 RUN.                                                1:    Run Number
~OTHER INFORMATION BLOCK
 DIGITISED FROM HARDCOPY BY UKOGL
#
~A    DEPT             CALI              GR                RHOB              DRHO       
# ...
     394.0000        6.43368479       73.06312361        2.63697202        0.03662777 
     394.1000        6.46599072       71.68957607        2.64766476        0.03202868 
     394.2000        6.49675118       69.40535199        2.65532079        0.02953037 
     394.3000        6.52345783       66.76876987        2.66040914        0.03123276 
     394.4000        6.52372268       65.07175472        2.64452700        0.02567654 
     394.5000        6.52332071       66.55477227        2.63344569        0.02297040 
     394.6000        6.52164031       68.99406695        2.62861695        0.02148742 
     394.7000        6.54534602       72.57455044        2.62898165        0.02247001 
     394.8000        6.54068177       75.23440896        2.62459421        0.02612809 
     394.9000        6.49984607       77.19968182        2.62157320        0.03855604 
     395.0000        6.45740029       78.66028377        2.62928238        0.03129628 
     395.1000        6.44231825       79.34062873        2.61238553        0.02139996 
     395.2000        6.46699919       80.41278490        2.60265030        0.01871778 
     395.3000        6.48557942       81.26355876        2.60010321        0.01654540 
     395.4000        6.50388079       80.57231808        2.60091614        0.01793403 
     395.5000        6.50977601       78.72896969        2.59981618        0.01354356 
     395.6000        6.51531507       77.51857425        2.59577649        0.00597957 
     395.7000        6.52085175       80.96903184        2.57922316        0.00519975 
     395.8000        6.52635245       84.84973002        2.57633400        0.00966701 
     395.9000        6.53175377       89.22732170        2.58067256        0.01489767 
     396.0000        6.53691639       93.62356352        2.58493357        0.01833040 
     396.1000        6.53990211       93.61339150        2.59401020        0.02554872 
     396.2000        6.51610807       94.38382037        2.59360951        0.02906251 
     396.3000        6.49131545       94.45520281        2.58181158        0.02405791 
     396.4000        6.46547372       90.25495448        2.56100704        0.01011480 
     396.5000        6.46436126       87.53785083        2.54775766        0.00640665 
     396.6000        6.46509615       87.41023679        2.54804802        0.00928542 
     396.7000        6.48480594       90.34048590        2.56268855        0.02288398 
     396.8000        6.50322221       90.08256479        2.57560279        0.02319454 
     396.9000        6.52293503       89.08665044        2.58233450        0.01737037 
     397.0000        6.52373126       87.66487558        2.58581254        0.01567375 
     397.1000        6.52364078       86.63629403        2.58820401        0.01553527 
     397.2000        6.52324878       87.85625859        2.57157716        0.01554932 
     397.3000        6.52164350       88.26776289        2.57135809        0.01651102 
     397.4000        6.54562324       89.53225425        2.57978706        0.02247642 
     397.5000        6.54364938       90.55391705        2.59498878        0.03512029 
     397.6000        6.54016793       90.67562239        2.60801356        0.03735584 
     397.7000        6.52281337       89.82215403        2.59644498        0.03046575 
     397.8000        6.54821781       88.58299724        2.59176722        0.02698375 
     397.9000        6.52277384       87.52043193        2.58471003        0.01678425 
     398.0000        6.53469288       89.38524576        2.57206728        0.01443214 
     398.1000        6.57295166       90.67060260        2.57012935        0.01765381 
     398.2000        6.59091634       91.82242154        2.58521680        0.02412412 
     398.3000        6.60499800       92.32739323        2.59270826        0.03305405 
     398.4000        6.57486462       94.93081557        2.61586503        0.04799407 
     398.5000        6.58340806       96.12252608        2.61959748        0.04696221 
     398.6000        6.60699859       94.63134330        2.59522542        0.02402918 
     398.7000        6.63375104       89.90593714        2.59201346        0.01395877 
     398.8000        6.66256127       81.46660322        2.60062288        0.00591609 
     398.9000        6.66506797       73.67544954        2.60906079       -0.00047082 
     399.0000        6.63792639       63.45792533        2.60984840       -0.00724763 
     399.1000        6.56602696       54.56823490        2.61234210       -0.01033981 
     399.2000        6.54647943       51.47143932        2.62059316       -0.01274871 
     399.3000        6.52503396       50.84842583        2.62659997       -0.01213370 
     399.4000        6.50818277       50.41910813        2.64007506       -0.00404868 
     399.5000        6.46498481       49.67121282        2.65407554        0.00455359 
     399.6000        6.47169865       48.73685044        2.66467705        0.01316297 
     399.7000        6.48428904       49.25983107        2.68892209        0.02177824 
     399.8000        6.46248021       51.88022010        2.68436908        0.03051330 
     399.9000        6.42604543       55.99693845        2.69602180        0.03583275 
     400.0000        6.43171608       60.01613979        2.68541038        0.03620660 
     400.1000        6.43979655       64.29654618        2.67235130        0.03255524 
     400.2000        6.44793226       67.46511050        2.66665961        0.03597478 
     400.3000        6.45610391       67.91882125        2.66652190        0.04271071 
     400.4000        6.46366980       64.51014400        2.65336363        0.04119903 
     400.5000        6.45530874       58.17521755        2.64282148        0.03445873 
     400.6000        6.44668201       50.54009254        2.65564610        0.03931090 
     400.7000        6.43801145       45.59551411        2.66121793        0.02925254 
     400.8000        6.42926052       42.11612679        2.65167754        0.02154538 
     400.9000        6.41830141       42.26371391        2.65468413        0.03005790 
     401.0000        6.40222236       42.66529348        2.64618124        0.03196465 
     401.1000        6.38536445       43.73129576        2.63151941        0.03591666 
     401.2000        6.38476205       44.07508514        2.63301228        0.04099930 
     401.3000        6.38666590       41.88031282        2.63994963        0.03024764 
     401.4000        6.43722397       40.67051865        2.63324608        0.01410169 
     401.5000        6.48355926       40.28238662        2.62817625        0.01245372 
     401.6000        6.48400483       40.92283368        2.63251835        0.02191194 
     401.7000        6.47521735       41.55003343        2.63852193        0.02398883 
     401.8000        6.44811928       41.65680478        2.63255173        0.02141050 
     401.9000        6.42568245       42.28944696        2.63539286        0.02399595 
     402.0000        6.44657160       43.18299917        2.65718928        0.03859288 
     402.1000        6.46376444       43.76540058        2.66519586        0.03990496 
     402.2000        6.45617012       44.11179145        2.64439951        0.02066856 
     402.3000        6.44689716       45.14985559        2.63955026        0.01686770 
     402.4000        6.45346446       45.64239433        2.63433172        0.01410555 
     402.5000        6.46790214       44.32217155        2.63378048        0.01798317 
     402.6000        6.48344478       41.86921143        2.63520946        0.02508347 
     402.7000        6.47672159       40.55384251        2.63982743        0.03089179 
     402.8000        6.46925082       40.96894148        2.64485394        0.02743053 
     402.9000        6.44221741       41.85399904        2.62806301        0.01419543 
     403.0000        6.44370836       42.87988734        2.61615713        0.00809426 
     403.1000        6.44548061       43.72786942        2.60050873        0.00231835 
