~Version Information Block
 VERS.                2.00:     CWLS LOG ASCII STANDARD - VERSION 2.000000
 WRAP.                  NO:     One Line Per Depth Step
#
~Well Information Block
#MNEM.UNIT                     Data                         Information
#----------   ------------------------------------------   ----------------
 STRT.M                                        348.0000:     START DEPTH
 STOP.M                                        673.1000:     STOP DEPTH
 STEP.M                                          0.1000:     STEP LENGTH OR LOG DEPTH INCREMENT
 NULL.                                        -999.2500:     NO VALUE
 COMP.                                             OPAB:     COMPANY
 WELL.                                     GRÖTLINGBO-2:     WELL
 FLD.                                        GRÖTLINGBO:     FIELD
 LOC.                                                  :     FIELD LOCATION
 PROV.                                                 :     PROVINCE
 STAT.                                                 :     STATE
 CTRY.                                                 :     COUNTRY
 LCC.                                                  :     SERVICE COMPANY
 DATE.                                                 :     LOG DATE
 WN.                                       GRÖTLINGBO-2:     WELL_NAME
 UWI.                                                  :     UNIQUE WELL ID
 API.                                                  :     API NUMBER
#
~CURVE INFORMATION BLOCK
#MNEM.UNIT       API CODE      Curve Description
#----------    -------------   -------------------
 DEPT.M                                               :    1 DEPTH
 CALI.IN       70 280 01 01                           :    2 Caliper
 GR  .GAPI     35 310 01 01                           :    3 Gamma Ray
 RHOB.G/C3     42 350 01 01                           :    4 Bulk Density
 DRHO.G/C3                                            :    5 Delta Rho
~PARAMETER INFORMATION BLOCK
#MNEM.UNIT                               Value            Description
#----------                       --------------------    -------------------------------------------------
 FTYP.                                            CFDL:    Log File Type
 RUN.                                                1:    Run Number
~OTHER INFORMATION BLOCK
 DIGITISED FROM HARDCOPY BY UKOGL
#
~A    DEPT             CALI              GR                RHOB              DRHO       
# ...
     642.4000        6.39506974       64.63887235        2.48464203        0.02306503 
     642.5000        6.39737182       64.83854813        2.47735341        0.03209020 
     642.6000        6.39965308       68.63123463        2.46753367        0.02089975 
     642.7000        6.40186844       74.46172545        2.46115806        0.01923989 
     642.8000        6.40394891       77.15102095        2.46894121        0.02452436 
     642.9000        6.38793087       77.31996671        2.47866375        0.03222096 
     643.0000        6.38510253       76.17303103        2.49479058        0.04492201 
     643.1000        6.38473848       77.31919381        2.49982637        0.04645728 
     643.2000        6.38458717       77.50880283        2.49167756        0.03599569 
     643.3000        6.38453361       79.40178926        2.50730367        0.04646957 
     643.4000        6.38456220       81.26648482        2.51475851        0.05912549 
     643.5000        6.38458136       82.85719271        2.51843592        0.06447651 
     643.6000        6.38485109       84.22464848        2.51991703        0.06280804 
     643.7000        6.37182169       82.77643311        2.51399391        0.06077203 
     643.8000        6.35197974       81.81582906        2.52848788        0.05684297 
     643.9000        6.33213956       80.66824310        2.52078384        0.04758956 
     644.0000        6.35774499       79.67994841        2.50752516        0.03787330 
     644.1000        6.36327789       78.93553053        2.49003937        0.02880922 
     644.2000        6.36439573       79.82949458        2.48745618        0.02902683 
     644.3000        6.36728088       81.26911207        2.52922543        0.04349431 
     644.4000        6.37002231       83.66219887        2.53363697        0.04820707 
     644.5000        6.37263090       86.56163672        2.51245826        0.03567468 
     644.6000        6.37520381       88.43917298        2.51355110        0.04284629 
     644.7000        6.37772380       90.24241457        2.52016439        0.05138210 
     644.8000        6.38024197       92.47251702        2.52399280        0.04815657 
     644.9000        6.38283998       94.87972624        2.52872638        0.04259590 
     645.0000        6.38319326       95.10687724        2.53507928        0.03369059 
     645.1000        6.34646264       94.07452805        2.52425237        0.02458718 
     645.2000        6.35183956       93.79604098        2.50928501        0.02031137 
     645.3000        6.40017744       93.99536902        2.51027158        0.03018251 
     645.4000        6.40360024       93.46591508        2.52798768        0.04358867 
     645.5000        6.40411658       92.92947571        2.52831506        0.04398089 
     645.6000        6.40433944       89.12899364        2.51832389        0.02730934 
     645.7000        6.40440916       85.22933871        2.49868354        0.02374921 
     645.8000        6.40438726       81.93245162        2.47643429        0.01699576 
     645.9000        6.40439719       75.45728423        2.46682873        0.00952001 
     646.0000        6.40438764       72.28394543        2.46224573        0.00891885 
     646.1000        6.40435621       69.63766834        2.45781370        0.01731287 
     646.2000        6.40426209       69.77707309        2.45838841        0.02393587 
     646.3000        6.40063233       72.23887079        2.45527479        0.02844590 
     646.4000        6.38742202       74.69954059        2.45684992        0.03566830 
     646.5000        6.38458001       76.11537712        2.47287440        0.03989265 
     646.6000        6.38449235       80.67839646        2.49402208        0.04688626 
     646.7000        6.38446118       85.65478867        2.49918934        0.03708375 
     646.8000        6.38445186       89.14996753        2.49216096        0.02919598 
     646.9000        6.38444981       93.21168672        2.50414094        0.04662881 
     647.0000        6.38369254       95.07667812        2.50237811        0.03962081 
     647.1000        6.38283860       96.53564663        2.47964971        0.02637555 
     647.2000        6.38198297       99.05033183        2.47386768        0.01980657 
     647.3000        6.38112679      102.11473469        2.47176266        0.01543392 
     647.4000        6.38027024      102.71332964        2.47310894        0.01927342 
     647.5000        6.37941417      101.47533244        2.47177334        0.02422957 
     647.6000        6.37855821      101.10997732        2.47611698        0.03363530 
     647.7000        6.37770225      102.64632877        2.48649566        0.04232103 
     647.8000        6.37684629      105.13048863        2.48701541        0.04279076 
     647.9000        6.37599032      108.43891949        2.49154890        0.03881132 
     648.0000        6.37513436      111.63107914        2.49055100        0.03998790 
     648.1000        6.37427840      116.82940784        2.50126679        0.03863807 
     648.2000        6.37342244      124.48167449        2.50629339        0.03357198 
     648.3000        6.37256648      132.87600915        2.51127835        0.02860820 
     648.4000        6.37171051      139.66688161        2.52725960        0.02947099 
     648.5000        6.37085455      142.05874313        2.55173067        0.03043132 
     648.6000        6.36999859      141.01717776        2.55964304        0.02687338 
     648.7000        6.36914263      138.97924355        2.56755784        0.02537757 
     648.8000        6.36834349      138.49979245        2.55988742        0.02870022 
     648.9000        6.36752558      135.86850418        2.55162780        0.02555291 
     649.0000        6.36675149      133.80236365        2.54795234        0.02391574 
     649.1000        6.36611327      130.03842082        2.53108624        0.02041433 
     649.2000        6.36608948      122.30131413        2.52586231        0.02822316 
     649.3000        6.32742185      115.38285766        2.52256877        0.03498299 
     649.4000        6.33345847      110.42988443        2.50838618        0.02068220 
     649.5000        6.36979439      109.32276545        2.49904254        0.01577471 
     649.6000        6.38465587      109.94783715        2.49023812        0.01920502 
     649.7000        6.38461810      113.85219647        2.48530632        0.01456989 
     649.8000        6.38458137      118.37161300        2.48314726        0.01257506 
     649.9000        6.38454172      123.74271585        2.49089494        0.01942054 
     650.0000        6.38448611      127.66737980        2.50607086        0.02161029 
     650.1000        6.38445035      131.93190079        2.52112987        0.02612273 
     650.2000        6.38442958      135.99006391        2.53629592        0.03207985 
     650.3000        6.38440555      139.13841625        2.53865324        0.03503681 
     650.4000        6.38437548      139.87342310        2.54331257        0.03117472 
     650.5000        6.38427230      138.55239121        2.54373802        0.01918626 
     650.6000        6.39264637      135.54216328        2.54945022        0.02460582 
     650.7000        6.41006004      131.43329952        2.56167483        0.03252703 
     650.8000        6.42738760      125.15764794        2.57331863        0.03992039 
     650.9000        6.44472070      121.03641212        2.56727324        0.04043131 
     651.0000        6.46335176      119.71527027        2.55940105        0.03644989 
     651.1000        6.46430806      120.68348756        2.56508480        0.03605287 
     651.2000        6.45760244      120.81757219        2.55488409        0.02507597 
     651.3000        6.44650877      121.28884331        2.53106179        0.01816966 
     651.4000        6.43539016      125.61951764        2.53802267        0.02942751 
     651.5000        6.42458461      131.66517523        2.53704293        0.02059598 
