~Version Information Block
 VERS.                2.00:     CWLS LOG ASCII STANDARD - VERSION 2.000000
 WRAP.                  NO:     One Line Per Depth Step
#
~Well Information Block
#MNEM.UNIT                     Data                         Information
#----------   ------------------------------------------   ----------------
 STRT.M                                        350.0000:     START DEPTH
 STOP.M                                        665.0000:     STOP DEPTH
 STEP.M                                          0.1000:     STEP LENGTH OR LOG DEPTH INCREMENT
 NULL.                                        -999.2500:     NO VALUE
 COMP.                                             OPAB:     COMPANY
 WELL.                                     GRÖTLINGBO-2:     WELL
 FLD.                                        GRÖTLINGBO:     FIELD
 LOC.                                                  :     FIELD LOCATION
 PROV.                                                 :     PROVINCE
 STAT.                                                 :     STATE
 CTRY.                                                 :     COUNTRY
 LCC.                                                  :     SERVICE COMPANY
 DATE.                                                 :     LOG DATE
 WN.                                       GRÖTLINGBO-2:     WELL_NAME
 UWI.                                                  :     UNIQUE WELL ID
 API.                                                  :     API NUMBER
#
~CURVE INFORMATION BLOCK
#MNEM.UNIT       API CODE      Curve Description
#----------    -------------   -------------------
 DEPT.M                                               :    1 DEPTH
 SP  .MV       01 010 01 01                           :    2 Spontaneous Potential
 LLD .OHMM     10 220 10 01                           :    3 Latero-Log Deep (Resistivity)
~PARAMETER INFORMATION BLOCK
#MNEM.UNIT                               Value            Description
#----------                       --------------------    -------------------------------------------------
 FTYP.                                             DLL:    Log File Type
 RUN.                                                1:    Run Number
~OTHER INFORMATION BLOCK
 DIGITISED FROM HARDCOPY BY UKOGL
#
~A    DEPT             SP                LLD        
# ...
     632.6000      -32.07269527       10.12287319 
     632.7000      -31.73105628        9.93755554 
     632.8000      -32.32717601        9.51973417 
     632.9000      -28.87008146        9.51973417 
     633.0000      -26.90236167       10.20775964 
     633.1000      -27.51154910       11.66055078 
     633.2000      -28.36342296       13.15574123 
     633.3000      -27.85806008       15.12049525 
     633.4000      -29.05900208       16.53756558 
     633.5000      -30.33420448       17.26339975 
     633.6000      -29.97570098       16.84482375 
     633.7000      -28.52042673       15.19030424 
     633.8000      -30.11837988       13.48511378 
     633.9000      -30.55305887       12.48703688 
     634.0000      -31.16667556       11.78813076 
     634.1000      -29.76181276       11.36837497 
     634.2000      -30.30956421       11.30643238 
     634.3000      -29.12906330       11.10329116 
     634.4000      -27.25048168       11.23514932 
     634.5000      -26.61258740       10.50181213 
     634.6000      -26.32660857        9.17561193 
     634.7000      -25.16720818        8.68261135 
     634.8000      -25.49834798        8.42026077 
     634.9000      -26.60673552        9.28891450 
     635.0000      -26.34938185       10.42128547 
     635.1000      -26.87107502       11.37388353 
     635.2000      -26.98567213       12.35914154 
     635.3000      -26.78964082       13.18062183 
     635.4000      -25.69834876       13.67717175 
     635.5000      -25.43790739       13.58695825 
     635.6000      -25.16226618       13.17855860 
     635.7000      -24.94581737       13.84164236 
     635.8000      -25.94219548       14.76283432 
     635.9000      -25.15348859       15.17616653 
     636.0000      -24.62474841       14.99105355 
     636.1000      -26.08315829       14.36075946 
     636.2000      -26.90350328       13.84164236 
     636.3000      -25.28471924       12.39419350 
     636.4000      -24.75094549       10.24718056 
     636.5000      -25.06500020        8.78982623 
     636.6000      -26.11994721        7.87065612 
     636.7000      -27.96422210        7.22273103 
     636.8000      -29.94525136        6.58759638 
     636.9000      -30.07537308        6.38854800 
     637.0000      -29.50997024        6.86355201 
     637.1000      -29.21546302        7.22711905 
     637.2000      -29.54691616        7.48596874 
     637.3000      -28.47488506        7.82309747 
     637.4000      -27.16522375        8.22441421 
     637.5000      -26.33531628        8.85823190 
     637.6000      -27.56854574        8.74828074 
     637.7000      -28.09348097        8.36874968 
     637.8000      -27.24110111        9.23208940 
     637.9000      -26.85355361        9.87676237 
     638.0000      -26.99757630        9.87676237 
     638.1000      -26.87238075        9.63728604 
     638.2000      -26.39269177        9.51973417 
     638.3000      -24.73467991        9.11947996 
     638.4000      -23.71849620        8.47208892 
     638.5000      -23.95297297        7.26718818 
     638.6000      -24.92909669        6.75074644 
     638.7000      -26.62199480        6.27178328 
     638.8000      -27.35899137        6.04018895 
     638.9000      -28.18734909        5.82676768 
     639.0000      -28.20526051        5.61613991 
     639.1000      -27.74572072        5.65070822 
     639.2000      -27.53478109        5.70296004 
     639.3000      -27.40593803        5.84723488 
     639.4000      -26.47607153        6.02677537 
     639.5000      -26.83074930        6.15761283 
     639.6000      -27.45130608        6.19551400 
     639.7000      -28.14281403        6.19551400 
     639.8000      -29.39554116        6.23364845 
     639.9000      -29.66674765        6.27201763 
     640.0000      -29.25956923        6.48993819 
     640.1000      -28.68610396        6.79232223 
     640.2000      -28.21830208        7.04760550 
     640.3000      -27.80585749        7.31191897 
     640.4000      -28.07296480        7.26718818 
     640.5000      -28.44311180        7.26718818 
     640.6000      -28.94411731        7.04760550 
     640.7000      -29.69490470        6.74507982 
     640.8000      -30.67714992        6.42593665 
     640.9000      -30.63352697        6.51005124 
     641.0000      -29.14342248        6.55138193 
     641.1000      -28.97071378        6.42787062 
     641.2000      -28.98709429        6.17653434 
     641.3000      -28.07315258        6.11994353 
     641.4000      -28.48827502        6.15385076 
     641.5000      -29.39582807        6.52114769 
     641.6000      -28.26391547        6.88907543 
     641.7000      -25.94593738        7.31191897 
     641.8000      -24.43130843        8.06623357 
     641.9000      -23.98080610        8.84392912 
     642.0000      -23.49070058        9.18010475 
     642.1000      -21.85211883        9.94370093 
     642.2000      -19.94288278        9.94733118 
     642.3000      -19.75797898        9.36473365 
     642.4000      -22.39019373        8.52423609 
     642.5000      -24.17778890        7.57374183 
     642.6000      -25.71737435        6.77785721 
     642.7000      -28.22907890        6.07529684 
     642.8000      -29.28372714        5.81991473 
     642.9000      -28.72769297        6.00851932 
     643.0000      -28.45345558        6.00616991 
     643.1000      -28.74561509        6.44925051 
     643.2000      -26.68414188        7.19488459 
     643.3000      -24.24969235        8.15070789 
     643.4000      -23.69307612        8.84902856 
     643.5000      -24.95745214        8.79419129 
     643.6000      -25.99268928        8.06623357 
     643.7000      -26.69530411        7.22273103 
     643.8000      -29.24498119        6.42787062 
     643.9000      -30.35791694        6.04529483 
     644.0000      -29.81419267        5.79112233 
     644.1000      -28.58835004        6.05457590 
     644.2000      -27.24931309        6.38854800 
     644.3000      -27.02449909        7.00449165 
     644.4000      -26.35465050        7.40220823 
     644.5000      -25.01383282        8.06623357 
     644.6000      -25.08102060        9.00824409 
     644.7000      -25.55818033        9.77786561 
     644.8000      -26.47394989       10.24718056 
     644.9000      -25.10487869       10.24718056 
     645.0000      -24.66600818       10.02448774 
     645.1000      -25.11359004        9.72714122 
     645.2000      -23.39244099        8.94061593 
     645.3000      -24.10661008        8.15009616 
     645.4000      -25.42854832        7.31191897 
     645.5000      -26.05189370        7.37953193 
     645.6000      -25.80060699        7.75083564 
     645.7000      -24.46138130        8.28480751 
     645.8000      -22.94224915        8.87110532 
     645.9000      -22.80947576        9.43251219 
     646.0000      -23.14792401        9.78626922 
     646.1000      -23.92930442        9.69660519 
     646.2000      -23.65374243        9.17561193 
     646.3000      -23.94531932        9.00824409 
     646.4000      -23.69194579        9.40361615 
     646.5000      -23.60300942        9.46149702 
     646.6000      -21.99261050        9.93755554 
     646.7000      -21.68494149       10.12218944 
     646.8000      -23.20259849        9.99872291 
     646.9000      -23.43697095        9.99872291 
     647.0000      -21.88751975       10.43756711 
     647.1000      -21.33324831       10.69692958 
     647.2000      -21.52676760       10.63149092 
     647.3000      -20.35015421       11.16641809 
     647.4000      -19.64592955       11.72826031 
     647.5000      -19.16726501       11.80044977 
     647.6000      -18.89358335       11.65651247 
     647.7000      -19.18011333       12.01969513 
     647.8000      -19.96398586       11.87308356 
     647.9000      -19.58141844       11.75527945 
     648.0000      -19.73980729       11.65651247 
     648.1000      -20.65478806       11.37388353 
     648.2000      -19.74641762       10.31025372 
