~Version Information Block
 VERS.                2.00:     CWLS LOG ASCII STANDARD - VERSION 2.000000
 WRAP.                  NO:     One Line Per Depth Step
#
~Well Information Block
#MNEM.UNIT                     Data                         Information
#----------   ------------------------------------------   ----------------
 STRT.M                                        350.0000:     START DEPTH
 STOP.M                                        665.0000:     STOP DEPTH
 STEP.M                                          0.1000:     STEP LENGTH OR LOG DEPTH INCREMENT
 NULL.                                        -999.2500:     NO VALUE
 COMP.                                             OPAB:     COMPANY
 WELL.                                     GRÖTLINGBO-2:     WELL
 FLD.                                        GRÖTLINGBO:     FIELD
 LOC.                                                  :     FIELD LOCATION
 PROV.                                                 :     PROVINCE
 STAT.                                                 :     STATE
 CTRY.                                                 :     COUNTRY
 LCC.                                                  :     SERVICE COMPANY
 DATE.                                                 :     LOG DATE
 WN.                                       GRÖTLINGBO-2:     WELL_NAME
 UWI.                                                  :     UNIQUE WELL ID
 API.                                                  :     API NUMBER
#
~CURVE INFORMATION BLOCK
#MNEM.UNIT       API CODE      Curve Description
#----------    -------------   -------------------
 DEPT.M                                               :    1 DEPTH
 SP  .MV       01 010 01 01                           :    2 Spontaneous Potential
 LLD .OHMM     10 220 10 01                           :    3 Latero-Log Deep (Resistivity)
~PARAMETER INFORMATION BLOCK
#MNEM.UNIT                               Value            Description
#----------                       --------------------    -------------------------------------------------
 FTYP.                                             DLL:    Log File Type
 RUN.                                                1:    Run Number
~OTHER INFORMATION BLOCK
 DIGITISED FROM HARDCOPY BY UKOGL
#
~A    DEPT             SP                LLD        
# ...
     522.7000      -19.83731083        6.34946595 
     522.8000      -20.07435722        6.46743526 
     522.9000      -19.26544662        6.50724344 
     523.0000      -19.42840937        6.46743526 
     523.1000      -17.65302829        6.54729664 
     523.2000      -17.57058053        6.62814417 
     523.3000      -17.80538581        6.66894154 
     523.4000      -18.35334378        6.66894154 
     523.5000      -17.91136930        7.06926184 
     523.6000      -17.04341843        7.87065612 
     523.7000      -17.93092433        7.82250724 
     523.8000      -17.08180979        8.31755370 
     523.9000      -15.62031636        8.87110532 
     524.0000      -15.18627948        8.95313599 
     524.1000      -15.09982294        8.73605431 
     524.2000      -16.85795969        8.52423609 
     524.3000      -15.48292063        8.95313599 
     524.4000      -14.79488726        8.42026077 
     524.5000      -17.61376579        7.67982072 
     524.6000      -17.57625680        7.22273103 
     524.7000      -17.01310614        7.22273103 
     524.8000      -17.72963563        7.17854584 
     524.9000      -16.90511849        7.22273103 
     525.0000      -17.37837330        7.17854584 
     525.1000      -18.06920926        7.08657682 
     525.2000      -18.34507432        7.18364010 
     525.3000      -18.65099124        7.17358158 
     525.4000      -16.98662042        7.17613058 
     525.5000      -17.60340588        7.44777009 
     525.6000      -17.28989686        7.31191897 
     525.7000      -16.52236763        8.21609942 
     525.8000      -17.26080009        9.00824409 
     525.9000      -18.54469835        9.63728604 
     526.0000      -20.13271520       10.02944763 
     526.1000      -19.83154557       10.76800237 
     526.2000      -18.85093981       10.63089765 
     526.3000      -19.68007438        9.61586715 
     526.4000      -19.03835078        8.57435754 
     526.5000      -19.42040245        7.96325219 
     526.6000      -19.83678234        8.02094244 
     526.7000      -19.13421879        7.84514605 
     526.8000      -20.19950542        7.42371161 
     526.9000      -19.94644601        7.20327409 
     527.0000      -20.49054735        7.09098473 
     527.1000      -20.32328952        7.04760550 
     527.2000      -19.07307673        6.70999002 
     527.3000      -20.11859190        6.38358295 
     527.4000      -20.46333758        6.27394584 
     527.5000      -19.54269279        6.46809649 
     527.6000      -18.64670275        6.70911608 
     527.7000      -18.80547617        6.79284652 
     527.8000      -18.10291584        6.75129116 
     527.9000      -17.95466770        7.00449165 
     528.0000      -19.88621715        7.04760550 
     528.1000      -20.04629752        7.00449165 
     528.2000      -18.78176680        6.70999002 
     528.3000      -19.37645097        6.58759638 
     528.4000      -19.77192363        6.91905359 
     528.5000      -19.87797211        7.26718818 
     528.6000      -19.72258734        7.49361240 
     528.7000      -17.80029386        7.49361240 
     528.8000      -18.25445202        7.53973687 
     528.9000      -17.60176940        7.72709134 
     529.0000      -18.75132481        7.77465291 
     529.1000      -18.30490893        7.67982072 
     529.2000      -16.75600620        7.49361240 
     529.3000      -17.30821275        7.04760550 
     529.4000      -17.02645467        7.40220823 
     529.5000      -16.47484765        7.22273103 
     529.6000      -17.79088237        7.44777009 
     529.7000      -16.07847145        7.67982072 
     529.8000      -15.42388370        7.58220525 
     529.9000      -14.89646581        7.49004437 
     530.0000      -14.27940606        7.49555226 
     530.1000      -13.97730781        7.58614525 
     530.2000      -12.35908178        7.53973687 
     530.3000      -13.04898620        7.58614525 
     530.4000      -12.65389631        7.96784479 
     530.5000      -12.11825684        8.26667092 
     530.6000      -12.25109417        8.42026077 
     530.7000      -12.35586385        8.42026077 
     530.8000      -13.40987220        8.11588263 
     530.9000      -13.58701362        7.73812984 
     531.0000      -14.11916578        7.43477842 
     531.1000      -13.74565273        7.17854584 
     531.2000      -14.66576226        7.40220823 
     531.3000      -15.03958373        7.72709134 
     531.4000      -14.36363177        8.16270613 
     531.5000      -13.68990525        8.39446571 
     531.6000      -12.92855655        8.52423609 
     531.7000      -13.00453030        8.26667092 
     531.8000      -12.80179610        8.16583728 
     531.9000      -12.07646864        7.84654475 
     532.0000      -13.55578930        7.63283928 
     532.1000      -13.08909263        7.66475528 
     532.2000      -12.57279347        7.72709134 
     532.3000      -13.57493728        7.67543193 
     532.4000      -13.12095283        7.68162798 
     532.5000      -13.16556135        7.63160750 
     532.6000      -12.59269441        7.53943242 
     532.7000      -13.30859177        7.63283928 
     532.8000      -14.05351948        7.77465291 
     532.9000      -14.27672554        8.16627385 
     533.0000      -13.23177526        8.53840642 
     533.1000      -11.69152216        8.79816874 
     533.2000      -10.03574507        8.68261135 
     533.3000       -9.26217981        8.78982623 
     533.4000      -11.25153745        8.55042991 
     533.5000      -10.97096714        8.21609942 
     533.6000      -10.09585289        7.79854337 
     533.7000      -10.57596228        7.56290547 
     533.8000      -10.73050902        7.92498230 
     533.9000      -10.77785095        7.91334236 
     534.0000       -9.94536842        8.16698750 
     534.1000      -10.95229710        8.31876191 
     534.2000      -11.84930809        8.26667092 
     534.3000      -11.98269696        8.21609942 
     534.4000      -12.78966437        7.87065612 
     534.5000      -12.23550541        7.87065612 
     534.6000      -11.88217217        7.87065612 
     534.7000      -12.54694095        7.87065612 
     534.8000      -11.88307976        7.87065612 
     534.9000      -11.91712824        7.82250724 
     535.0000      -10.89792447        7.87065612 
     535.1000      -11.25819215        7.96784479 
     535.2000      -11.85804523        8.36258956 
     535.3000      -11.92186621        8.98064777 
     535.4000      -11.87143498        9.93755554 
     535.5000       -9.58790782       10.37371511 
     535.6000       -9.83169088       10.24718056 
     535.7000      -10.38683106        9.99872291 
     535.8000       -9.72641588        9.75628946 
     535.9000      -10.19541880        9.17561193 
     536.0000      -10.37917973        8.33592511 
     536.1000      -10.36039445        7.53415291 
     536.2000      -10.28236652        7.54213420 
     536.3000       -8.90033727        7.91216240 
     536.4000       -9.71642162        8.06623357 
     536.5000      -10.70744423        8.01688825 
     536.6000      -10.26232348        8.21609942 
     536.7000      -11.03261028        8.16583728 
     536.8000      -10.04573869        8.29207328 
     536.9000      -10.03673417        8.36874968 
     537.0000      -10.73232174        8.20923873 
     537.1000       -8.55225341        8.37665135 
     537.2000       -9.53220905        8.16583728 
     537.3000       -9.86271832        8.31755370 
     537.4000       -9.43419546        8.36874968 
     537.5000      -10.10247033        8.16583728 
     537.6000      -10.06951301        8.21609942 
     537.7000       -9.97358253        8.36874968 
     537.8000       -9.44819318        8.47208892 
     537.9000      -10.13389223        8.31755370 
     538.0000      -10.22514171        8.21609942 
     538.1000      -10.16410660        8.11588263 
     538.2000      -10.77541682        8.01688825 
     538.3000      -10.89164583        7.96784479 
