~Version Information Block
 VERS.                2.00:     CWLS LOG ASCII STANDARD - VERSION 2.000000
 WRAP.                  NO:     One Line Per Depth Step
#
~Well Information Block
#MNEM.UNIT                     Data                         Information
#----------   ------------------------------------------   ----------------
 STRT.M                                        350.0000:     START DEPTH
 STOP.M                                        665.0000:     STOP DEPTH
 STEP.M                                          0.1000:     STEP LENGTH OR LOG DEPTH INCREMENT
 NULL.                                        -999.2500:     NO VALUE
 COMP.                                             OPAB:     COMPANY
 WELL.                                     GRÖTLINGBO-2:     WELL
 FLD.                                        GRÖTLINGBO:     FIELD
 LOC.                                                  :     FIELD LOCATION
 PROV.                                                 :     PROVINCE
 STAT.                                                 :     STATE
 CTRY.                                                 :     COUNTRY
 LCC.                                                  :     SERVICE COMPANY
 DATE.                                                 :     LOG DATE
 WN.                                       GRÖTLINGBO-2:     WELL_NAME
 UWI.                                                  :     UNIQUE WELL ID
 API.                                                  :     API NUMBER
#
~CURVE INFORMATION BLOCK
#MNEM.UNIT       API CODE      Curve Description
#----------    -------------   -------------------
 DEPT.M                                               :    1 DEPTH
 SP  .MV       01 010 01 01                           :    2 Spontaneous Potential
 LLD .OHMM     10 220 10 01                           :    3 Latero-Log Deep (Resistivity)
~PARAMETER INFORMATION BLOCK
#MNEM.UNIT                               Value            Description
#----------                       --------------------    -------------------------------------------------
 FTYP.                                             DLL:    Log File Type
 RUN.                                                1:    Run Number
~OTHER INFORMATION BLOCK
 DIGITISED FROM HARDCOPY BY UKOGL
#
~A    DEPT             SP                LLD        
# ...
     554.1000       -8.57806515        8.29207328 
     554.2000       -8.38930764        8.47208892 
     554.3000       -9.01723781        8.52423609 
     554.4000       -8.83259310        8.36874968 
     554.5000       -8.69867806        8.24450770 
     554.6000       -8.92548899        8.21294373 
     554.7000       -8.91945457        8.22064510 
     554.8000       -9.06632198        8.11167973 
     554.9000       -9.84265745        8.01877556 
     555.0000       -9.77850373        7.97246307 
     555.1000      -10.09636809        7.92119856 
     555.2000      -10.39802686        7.87065612 
     555.3000       -9.97713465        7.91910136 
     555.4000       -9.89704799        7.78061866 
     555.5000      -10.18994026        7.56870873 
     555.6000      -10.36665792        7.36257030 
     555.7000       -9.55342490        7.26718818 
     555.8000       -7.87897398        7.20060454 
     555.9000       -8.36359806        6.98303374 
     556.0000       -8.09243871        6.87672615 
     556.1000       -7.46952349        7.00449165 
     556.2000       -7.88331933        6.94031490 
     556.3000       -7.20947419        6.91905359 
     556.4000       -7.69167431        7.13463096 
     556.5000       -7.59606594        7.24492550 
     556.6000       -8.31956134        7.31191897 
     556.7000      -10.86188145        6.89785740 
     556.8000      -11.64259736        6.64919777 
     556.9000      -13.92573060        6.50413934 
     557.0000      -16.99929113        6.50534311 
     557.1000      -20.78421582        6.75129116 
     557.2000      -21.63674605        6.87672615 
     557.3000      -21.28577699        6.83465766 
     557.4000      -22.39231014        6.63102816 
     557.5000      -23.38880823        6.30668515 
     557.6000      -22.75865615        6.15118770 
     557.7000      -23.37594355        6.08250466 
     557.8000      -23.55601743        6.38854800 
     557.9000      -22.76089082        7.09098473 
     558.0000      -20.47757248        6.83283525 
     558.1000      -18.27295596        6.83682001 
     558.2000      -15.95656269        6.87026201 
     558.3000      -12.71948276        6.87672615 
     558.4000       -9.53937948        7.13463096 
     558.5000       -7.60779878        7.00449165 
     558.6000       -8.51279948        6.83465766 
     558.7000       -8.33833937        6.79284652 
     558.8000       -7.42338995        7.09098473 
     558.9000       -7.15427384        7.40220823 
     559.0000       -8.52074032        7.60897644 
     559.1000       -9.08426581        7.82537461 
     559.2000      -10.36651390        7.82161146 
     559.3000      -10.40217350        7.87065612 
     559.4000      -10.01200762        7.77465291 
     559.5000      -10.41687782        7.72709134 
     559.6000      -10.02158170        7.72709134 
     559.7000      -10.50250001        7.82250724 
     559.8000       -9.32875476        7.77465291 
     559.9000      -10.22535108        7.82250724 
     560.0000      -10.25503362        7.72709134 
     560.1000      -10.25884340        7.96784479 
     560.2000      -10.89314931        7.96970887 
     560.3000      -12.22537441        7.96353072 
     560.4000      -12.51183607        8.00974532 
     560.5000      -12.80584050        7.91102940 
     560.6000      -11.80539633        8.07450415 
     560.7000      -10.89215487        8.05884650 
     560.8000      -10.80044526        7.77465291 
     560.9000       -9.89665483        7.87065612 
     561.0000       -8.77262075        7.77465291 
     561.1000       -6.94464583        7.87255602 
     561.2000       -7.82431369        7.84861842 
     561.3000       -8.41331153        7.87233316 
     561.4000       -7.15596899        7.77621205 
     561.5000       -6.24191706        7.67982072 
     561.6000       -5.44413975        7.67982072 
     561.7000       -5.19796064        7.60945645 
     561.8000       -5.67253327        7.44777009 
     561.9000       -6.10687656        7.51663926 
     562.0000       -5.88037269        7.70341977 
     562.1000       -6.80191107        7.96751968 
     562.2000       -7.42932445        7.91904581 
     562.3000       -7.85302456        8.17037645 
     562.4000       -7.68499463        8.21609942 
     562.5000       -8.88107752        8.09102002 
     562.6000       -9.01204967        7.96784479 
     562.7000       -6.96239710        7.96784479 
     562.8000       -7.05232647        8.11588263 
     562.9000       -7.40631740        7.96784479 
     563.0000       -7.07681565        7.96784479 
     563.1000       -6.43253497        7.91910136 
     563.2000       -6.10297227        7.87065612 
     563.3000       -5.83570342        7.96784479 
     563.4000       -5.58539870        7.96784479 
     563.5000       -5.97712092        7.87065612 
     563.6000       -6.70788740        7.91910136 
     563.7000       -6.41577676        7.82250724 
     563.8000       -6.35450243        7.96784479 
     563.9000       -6.51819714        8.01688825 
     564.0000       -5.45543161        8.06623357 
     564.1000       -4.68193574        7.96784479 
     564.2000       -5.04003445        7.87065612 
     564.3000       -5.38904894        7.82250724 
     564.4000       -4.56582327        7.82250724 
     564.5000       -4.80869524        8.01688825 
     564.6000       -6.13319407        8.57670423 
     564.7000       -5.81820361        9.63728604 
     564.8000       -4.33372692        9.88306020 
     564.9000       -3.55462856        9.82085679 
     565.0000       -3.47025881        9.15053884 
     565.1000       -3.09620607        8.84392912 
     565.2000       -2.01458483        8.36874968 
     565.3000       -3.46856958        8.11588263 
     565.4000       -5.31863007        7.96784479 
     565.5000       -5.46524260        9.17561193 
     565.6000       -5.60225302       10.43756711 
     565.7000       -6.62087621       11.44389174 
     565.8000       -7.39239451       12.31837181 
     565.9000       -6.19363098       12.70217606 
     566.0000       -7.86020915       12.85902546 
     566.1000       -9.08625644       12.78036014 
     566.2000       -7.85485302       13.33302695 
     566.3000       -9.41607151       14.04558111 
     566.4000       -9.05971315       14.80918878 
     566.5000      -10.01061403       14.80745195 
     566.6000      -10.91667239       15.28398327 
     566.7000      -11.02042566       14.99105355 
     566.8000      -13.33972990       13.84164236 
     566.9000      -15.33752493       12.97793223 
     567.0000      -15.98235130       12.28196053 
     567.1000      -15.55605095       11.80044977 
     567.2000      -15.73769392       11.58520354 
     567.3000      -17.49619830       11.44389174 
     567.4000      -18.76690328       11.72826031 
     567.5000      -15.79123598       12.24301395 
     567.6000      -14.58914690       12.85902546 
     567.7000      -17.07050850       13.42340841 
     567.8000      -17.09810541       14.09881188 
     567.9000      -12.71039570       14.27290726 
     568.0000      -11.81001124       14.18559249 
     568.1000      -10.85934570       15.84224887 
     568.2000      -10.28079134       15.55327817 
     568.3000       -8.18553511       14.09881188 
     568.4000       -8.43457680       12.78036014 
     568.5000      -10.57297449       12.54723986 
     568.6000       -7.21071557       13.09793854 
     568.7000       -5.75535950       12.54723986 
     568.8000       -8.42208389       12.24301395 
     568.9000       -9.30777917       14.01510691 
     569.0000       -9.81553319       15.76724302 
     569.1000       -8.32014772       17.26994220 
     569.2000       -8.41395962       16.94850654 
     569.3000       -9.33438155       15.84224887 
     569.4000      -10.38489154       16.03787261 
     569.5000      -10.95182892       15.84224887 
     569.6000      -11.21934169       14.80819851 
     569.7000      -12.40547735       13.50603180 
