~Version Information Block
 VERS.                2.00:     CWLS LOG ASCII STANDARD - VERSION 2.000000
 WRAP.                  NO:     One Line Per Depth Step
#
~Well Information Block
#MNEM.UNIT                     Data                         Information
#----------   ------------------------------------------   ----------------
 STRT.M                                        350.0000:     START DEPTH
 STOP.M                                        665.0000:     STOP DEPTH
 STEP.M                                          0.1000:     STEP LENGTH OR LOG DEPTH INCREMENT
 NULL.                                        -999.2500:     NO VALUE
 COMP.                                             OPAB:     COMPANY
 WELL.                                     GRÖTLINGBO-2:     WELL
 FLD.                                        GRÖTLINGBO:     FIELD
 LOC.                                                  :     FIELD LOCATION
 PROV.                                                 :     PROVINCE
 STAT.                                                 :     STATE
 CTRY.                                                 :     COUNTRY
 LCC.                                                  :     SERVICE COMPANY
 DATE.                                                 :     LOG DATE
 WN.                                       GRÖTLINGBO-2:     WELL_NAME
 UWI.                                                  :     UNIQUE WELL ID
 API.                                                  :     API NUMBER
#
~CURVE INFORMATION BLOCK
#MNEM.UNIT       API CODE      Curve Description
#----------    -------------   -------------------
 DEPT.M                                               :    1 DEPTH
 SP  .MV       01 010 01 01                           :    2 Spontaneous Potential
 LLD .OHMM     10 220 10 01                           :    3 Latero-Log Deep (Resistivity)
~PARAMETER INFORMATION BLOCK
#MNEM.UNIT                               Value            Description
#----------                       --------------------    -------------------------------------------------
 FTYP.                                             DLL:    Log File Type
 RUN.                                                1:    Run Number
~OTHER INFORMATION BLOCK
 DIGITISED FROM HARDCOPY BY UKOGL
#
~A    DEPT             SP                LLD        
# ...
     491.3000      -15.06471025        6.58759638 
     491.4000      -17.32185094        6.54729664 
     491.5000      -17.95066553        6.48730882 
     491.6000      -17.50894959        6.42787062 
     491.7000      -16.36113394        6.58759638 
     491.8000      -17.96723255        6.36897700 
     491.9000      -17.85889488        6.19551400 
     492.0000      -14.95404887        6.52210890 
     492.1000      -12.09632172        6.83465766 
     492.2000      -11.65235016        7.49361240 
     492.3000      -13.89714180        7.22273103 
     492.4000      -14.35518655        7.49361240 
     492.5000      -12.94112398        7.53973687 
     492.6000      -13.13965747        7.63283928 
     492.7000      -15.32586055        7.22273103 
     492.8000      -15.85409657        6.70999002 
     492.9000      -14.77896393        6.42787062 
     493.0000      -13.78325203        6.90774594 
     493.1000      -14.04551198        7.13427830 
     493.2000      -17.04374363        7.26718818 
     493.3000      -17.00495297        7.44777009 
     493.4000      -15.23264055        7.86444898 
     493.5000      -14.16307242        8.37650844 
     493.6000      -14.08815186        8.42976523 
     493.7000      -16.28801727        7.26364621 
     493.8000      -16.61434670        6.70542644 
     493.9000      -18.45539772        6.26903817 
     494.0000      -19.67736582        6.42525047 
     494.1000      -18.41850448        6.23364845 
     494.2000      -17.51390191        6.38854800 
     494.3000      -15.84487349        6.79284652 
     494.4000      -15.88373101        6.96164155 
     494.5000      -14.22059766        6.87672615 
     494.6000      -11.49708024        7.31191897 
     494.7000      -11.48151809        7.40220823 
     494.8000      -12.91815131        7.26718818 
     494.9000      -12.44604050        7.26718818 
     495.0000      -10.85129878        7.35692509 
     495.1000      -10.65074219        7.51998590 
     495.2000      -10.46265954        7.58951185 
     495.3000      -10.87631336        7.54303468 
     495.4000       -9.18216941        7.53973687 
     495.5000       -9.19015908        7.67982072 
     495.6000       -8.91296490        7.96295698 
     495.7000       -8.11394088        8.27375556 
     495.8000       -8.96742884        8.22525886 
     495.9000      -10.83979959        7.59659762 
     496.0000      -11.10864016        7.53065421 
     496.1000      -13.12550495        7.53359279 
     496.2000      -16.03742955        7.72630080 
     496.3000      -17.07868497        8.40504500 
     496.4000      -17.15276699        9.58008093 
     496.5000      -17.02974274       10.52089634 
     496.6000      -19.67397697       10.30895234 
     496.7000      -19.96062505       10.56645259 
     496.8000      -17.50081033        9.75628946 
     496.9000      -16.93261034        8.87888528 
     497.0000      -20.54444656        8.06623357 
     497.1000      -20.66490442        7.22273103 
     497.2000      -16.87684977        7.22273103 
     497.3000      -12.79042360        7.91910136 
     497.4000      -11.19145591        9.11947996 
     497.5000      -12.72100315        8.21609942 
     497.6000      -11.25250660        8.06623357 
     497.7000      -11.89724133        8.21609942 
     497.8000      -11.92085378        8.01688825 
     497.9000      -12.01443152        8.05459987 
     498.0000      -14.75865237        9.41161754 
     498.1000      -16.66797081       10.25075390 
     498.2000      -19.25918535        9.88480077 
     498.3000      -21.10316658        8.88841318 
     498.4000      -22.46481201        9.75959411 
     498.5000      -25.65671090        9.75534624 
     498.6000      -27.80845339        9.74621382 
     498.7000      -30.51413208       10.16876577 
     498.8000      -28.28614836       11.09810733 
     498.9000      -28.12068402       11.72826031 
     499.0000      -31.46895440       12.24301395 
     499.1000      -33.93670620       13.34129048 
     499.2000      -34.19556991       12.70217606 
     499.3000      -35.09309571       12.89853950 
     499.4000      -36.56350306       14.63706520 
     499.5000      -36.18372730       18.30784285 
     499.6000      -33.58796729       20.85747740 
     499.7000      -29.31793353       21.58431447 
     499.8000      -25.49066385       17.96588407 
     499.9000      -20.63185568       13.71482208 
     500.0000      -19.46699790       10.00514844 
     500.1000      -18.72594649        8.05284060 
     500.2000      -15.35647018        8.68756712 
     500.3000      -13.43401438        7.53248852 
     500.4000      -14.64039355        6.91905359 
     500.5000      -14.21567189        7.96784479 
     500.6000      -12.11287624        7.63283928 
     500.7000      -13.55450830        7.26718818 
     500.8000      -16.24726889        6.91905359 
     500.9000      -16.32237002        7.19839562 
     501.0000      -11.84980925        7.85658216 
     501.1000      -10.84758863        8.52423609 
     501.2000      -12.50587224        8.78982623 
     501.3000      -10.92227411        8.36874968 
     501.4000       -8.17818154        8.42289299 
     501.5000       -7.73356580        8.47397124 
     501.6000       -7.88315611        8.42668162 
     501.7000       -9.90582645        7.44777009 
     501.8000      -11.93832194        6.70999002 
     501.9000      -12.67259236        6.99842604 
     502.0000      -14.15954787        6.62558092 
     502.1000      -17.34548290        6.69446860 
     502.2000      -18.18973326        7.13463096 
     502.3000      -15.66389882        7.82250724 
     502.4000      -11.62241610        8.42026077 
     502.5000      -11.21889567        8.62949532 
     502.6000      -11.98324843        7.82250724 
     502.7000      -10.86059391        7.94343569 
     502.8000       -8.81775917        8.04152306 
     502.9000       -8.39131510        8.21609942 
     503.0000      -10.49709003        8.16583728 
     503.1000      -11.82603044        7.94343569 
     503.2000      -11.47979081        8.06623357 
     503.3000      -12.58861838        7.96784479 
     503.4000      -14.09429931        8.01688825 
     503.5000      -15.08293676        7.87065612 
     503.6000      -14.23215532        7.82250724 
     503.7000      -13.18971037        7.82250724 
     503.8000      -11.90418031        7.99232890 
     503.9000      -11.66193754        8.21609942 
     504.0000      -12.79427461        8.26667092 
     504.1000      -11.93274602        8.11588263 
     504.2000      -12.02015734        8.73605431 
     504.3000      -13.03710793        9.28891450 
     504.4000      -12.99129014        9.87676237 
     504.5000      -13.58724745        9.87676237 
     504.6000      -12.50959891        9.87676237 
     504.7000      -11.67884587       10.06187990 
     504.8000      -10.20748521       10.38539567 
     504.9000       -9.80633823       10.32339540 
     505.0000      -10.50999155        8.62773944 
     505.1000       -9.37795815        8.62717779 
     505.2000       -9.85299051        8.79251064 
     505.3000      -12.07038942        8.62012453 
     505.4000       -9.67053699        9.46149702 
     505.5000      -11.58298007        9.78626922 
     505.6000      -13.82271639        9.93755554 
     505.7000      -12.88554325        9.87676237 
     505.8000      -12.94778584        9.81634110 
     505.9000      -14.24890939        9.28891450 
     506.0000      -14.14444517        8.82068825 
     506.1000      -11.96197070        8.26667092 
     506.2000      -10.02731680        8.31755370 
     506.3000      -11.72719383        7.53973687 
     506.4000      -12.10570020        7.13463096 
     506.5000       -9.72143266        7.40220823 
     506.6000      -10.31741904        8.16583728 
     506.7000      -11.19771186        9.63728604 
     506.8000      -11.20250843       10.44077001 
     506.9000      -11.45333366       11.09810733 
