~Version Information Block
 VERS.                2.00:     CWLS LOG ASCII STANDARD - VERSION 2.000000
 WRAP.                  NO:     One Line Per Depth Step
#
~Well Information Block
#MNEM.UNIT                     Data                         Information
#----------   ------------------------------------------   ----------------
 STRT.M                                        348.0000:     START DEPTH
 STOP.M                                        673.1000:     STOP DEPTH
 STEP.M                                          0.1000:     STEP LENGTH OR LOG DEPTH INCREMENT
 NULL.                                        -999.2500:     NO VALUE
 COMP.                                             OPAB:     COMPANY
 WELL.                                     GRÖTLINGBO-2:     WELL
 FLD.                                        GRÖTLINGBO:     FIELD
 LOC.                                                  :     FIELD LOCATION
 PROV.                                                 :     PROVINCE
 STAT.                                                 :     STATE
 CTRY.                                                 :     COUNTRY
 LCC.                                                  :     SERVICE COMPANY
 DATE.                                                 :     LOG DATE
 WN.                                       GRÖTLINGBO-2:     WELL_NAME
 UWI.                                                  :     UNIQUE WELL ID
 API.                                                  :     API NUMBER
#
~CURVE INFORMATION BLOCK
#MNEM.UNIT       API CODE      Curve Description
#----------    -------------   -------------------
 DEPT.M                                               :    1 DEPTH
 CALI.IN       70 280 01 01                           :    2 Caliper
 GR  .GAPI     35 310 01 01                           :    3 Gamma Ray
 RHOB.G/C3     42 350 01 01                           :    4 Bulk Density
 DRHO.G/C3                                            :    5 Delta Rho
~PARAMETER INFORMATION BLOCK
#MNEM.UNIT                               Value            Description
#----------                       --------------------    -------------------------------------------------
 FTYP.                                            CFDL:    Log File Type
 RUN.                                                1:    Run Number
~OTHER INFORMATION BLOCK
 DIGITISED FROM HARDCOPY BY UKOGL
#
~A    DEPT             CALI              GR                RHOB              DRHO       
# ...
     614.8000        6.38872826       86.38267074        2.58322159        0.05045805 
     614.9000        6.34050533       85.23663730        2.56629659        0.04619219 
     615.0000        6.34390853       86.96066572        2.55770543        0.04883021 
     615.1000        6.31777133       91.01006869        2.55180938        0.04426651 
     615.2000        6.30502464       92.08046570        2.56546187        0.05656565 
     615.3000        6.30499452       92.76712408        2.58603408        0.07004268 
     615.4000        6.30660216       95.27481026        2.61631600        0.08408839 
     615.5000        6.34800608       97.81580360        2.60049143        0.06567620 
     615.6000        6.31314277       98.36046077        2.58128160        0.04279755 
     615.7000        6.30482897       96.75522841        2.57391456        0.03765847 
     615.8000        6.30468306       96.40966837        2.60620484        0.05001619 
     615.9000        6.30441821       97.55933918        2.60799373        0.03982386 
     616.0000        6.31465200       98.67226204        2.59234585        0.02510283 
     616.1000        6.33012073       97.86291086        2.58208701        0.02208628 
     616.2000        6.34437673       97.86440739        2.59039978        0.04299335 
     616.3000        6.34557408       97.21326946        2.59668621        0.05258852 
     616.4000        6.34646400       96.25268337        2.60441425        0.05030573 
     616.5000        6.34734201       98.27121989        2.59630336        0.03851430 
     616.6000        6.34821144      100.98078294        2.59013559        0.03021526 
     616.7000        6.34907834      104.98439449        2.59276233        0.03261333 
     616.8000        6.34995611      108.22508192        2.59581961        0.04095675 
     616.9000        6.35083395      110.90683480        2.58720476        0.03511818 
     617.0000        6.35171180      116.30495663        2.58290482        0.03296033 
     617.1000        6.35258964      120.04442702        2.57643732        0.02894305 
     617.2000        6.35346749      120.80301156        2.56991449        0.03802206 
     617.3000        6.35434533      120.44680750        2.56100133        0.02873808 
     617.4000        6.35522318      123.86193229        2.56584662        0.03928749 
     617.5000        6.35610102      127.65750264        2.56471395        0.03036816 
     617.6000        6.35697886      129.40347538        2.56760291        0.02972163 
     617.7000        6.35785671      126.75270009        2.57720480        0.03480471 
     617.8000        6.35873455      127.57005864        2.58539567        0.03456130 
     617.9000        6.35961240      127.70431100        2.59146893        0.03169107 
     618.0000        6.36049024      125.54192754        2.58743922        0.04351638 
     618.1000        6.36136809      116.70124410        2.58224705        0.04861085 
     618.2000        6.36224593      105.42283167        2.60782448        0.05287054 
     618.3000        6.36312378       93.13191126        2.60188958        0.03772187 
     618.4000        6.36400162       78.12119953        2.60012801        0.02471564 
     618.5000        6.36487947       66.12194236        2.58943465        0.01273845 
     618.6000        6.36575731       58.94138956        2.57673580        0.01207321 
     618.7000        6.36663515       54.80556951        2.56217035        0.02818659 
     618.8000        6.36751300       56.00663963        2.53257053        0.02768482 
     618.9000        6.36839084       60.87347511        2.51323885        0.02257264 
     619.0000        6.36926869       66.23483713        2.51578818        0.03709449 
     619.1000        6.37014653       71.84915192        2.50171561        0.04003980 
     619.2000        6.37102438       85.46975486        2.49786467        0.03779908 
     619.3000        6.37190222       98.72440770        2.51317629        0.04271093 
     619.4000        6.37278007      110.64669869        2.52287284        0.05074543 
     619.5000        6.37365791      115.63959077        2.53745190        0.05810658 
     619.6000        6.37453576      115.55458326        2.55821265        0.05930097 
     619.7000        6.37541360      114.05156197        2.56491625        0.04199739 
     619.8000        6.37629144      112.68720183        2.58619406        0.04324656 
     619.9000        6.37716929      112.66043275        2.60623364        0.06118328 
     620.0000        6.37804713      117.13305618        2.62677904        0.06374123 
     620.1000        6.37892498      120.71324532        2.61608647        0.04106581 
     620.2000        6.37980282      120.41879851        2.59926083        0.02636544 
     620.3000        6.38068067      119.93977742        2.57532904        0.02470623 
     620.4000        6.38155851      120.89196165        2.57856762        0.03295907 
     620.5000        6.38243636      122.83021547        2.56316329        0.01697465 
     620.6000        6.38331420      124.19696738        2.54209770        0.01617864 
     620.7000        6.38419205      123.38185280        2.56194311        0.02616485 
     620.8000        6.38506989      120.76525162        2.55276941        0.01901982 
     620.9000        6.38594773      118.63127685        2.54363250        0.01589471 
     621.0000        6.38682558      115.06624983        2.54638103        0.01162085 
     621.1000        6.38770342      110.97127495        2.55402695        0.01357931 
     621.2000        6.38858127      110.27874960        2.56885371        0.02426902 
     621.3000        6.38945911      111.07841388        2.59519997        0.04533876 
     621.4000        6.39033696       96.92343206        2.58873451        0.05265937 
     621.5000        6.39121480       99.54502295        2.57251843        0.03827034 
     621.6000        6.39209265      104.89622706        2.55104384        0.02572875 
     621.7000        6.39297049      108.99487723        2.56458828        0.04699757 
     621.8000        6.39384834      118.60899921        2.58063516        0.05604838 
     621.9000        6.39472618      117.90460609        2.57890194        0.04800820 
     622.0000        6.39560402      118.38592634        2.59526090        0.05901654 
     622.1000        6.39648187      118.75906042        2.59703513        0.06039034 
     622.2000        6.39735971      119.18469186        2.58608773        0.05809741 
     622.3000        6.39823756      121.21113904        2.57597143        0.05722201 
     622.4000        6.39911540      122.02957600        2.58965660        0.05660445 
     622.5000        6.39999325      118.20047687        2.58488764        0.05085756 
     622.6000        6.40087109      115.53890903        2.58549346        0.04479508 
     622.7000        6.40174894      114.01235782        2.57697394        0.04268461 
     622.8000        6.40262678      112.88512474        2.56842975        0.03997493 
     622.9000        6.40350463      110.34213249        2.56885821        0.03672473 
     623.0000        6.40438247      107.41731332        2.57872050        0.04978773 
     623.1000        6.40526031      105.00586773        2.59403569        0.06052025 
     623.2000        6.40613816      104.84226952        2.57053312        0.05121904 
     623.3000        6.40701600      106.95944818        2.56726890        0.04578773 
     623.4000        6.40789385      107.05327309        2.56271111        0.05232482 
     623.5000        6.40877169      105.06291641        2.55448176        0.04709505 
     623.6000        6.40964954      104.75268346        2.55277323        0.05239587 
     623.7000        6.41052738      103.45269365        2.54557772        0.05251121 
     623.8000        6.41140523      102.26983764        2.54309324        0.03363232 
     623.9000        6.41228307      102.81639164        2.54642765        0.04497368 
