~Version Information Block
 VERS.                2.00:     CWLS LOG ASCII STANDARD - VERSION 2.000000
 WRAP.                  NO:     One Line Per Depth Step
#
~Well Information Block
#MNEM.UNIT                     Data                         Information
#----------   ------------------------------------------   ----------------
 STRT.M                                        348.0000:     START DEPTH
 STOP.M                                        673.1000:     STOP DEPTH
 STEP.M                                          0.1000:     STEP LENGTH OR LOG DEPTH INCREMENT
 NULL.                                        -999.2500:     NO VALUE
 COMP.                                             OPAB:     COMPANY
 WELL.                                     GRÖTLINGBO-2:     WELL
 FLD.                                        GRÖTLINGBO:     FIELD
 LOC.                                                  :     FIELD LOCATION
 PROV.                                                 :     PROVINCE
 STAT.                                                 :     STATE
 CTRY.                                                 :     COUNTRY
 LCC.                                                  :     SERVICE COMPANY
 DATE.                                                 :     LOG DATE
 WN.                                       GRÖTLINGBO-2:     WELL_NAME
 UWI.                                                  :     UNIQUE WELL ID
 API.                                                  :     API NUMBER
#
~CURVE INFORMATION BLOCK
#MNEM.UNIT       API CODE      Curve Description
#----------    -------------   -------------------
 DEPT.M                                               :    1 DEPTH
 CALI.IN       70 280 01 01                           :    2 Caliper
 GR  .GAPI     35 310 01 01                           :    3 Gamma Ray
 RHOB.G/C3     42 350 01 01                           :    4 Bulk Density
 DRHO.G/C3                                            :    5 Delta Rho
~PARAMETER INFORMATION BLOCK
#MNEM.UNIT                               Value            Description
#----------                       --------------------    -------------------------------------------------
 FTYP.                                            CFDL:    Log File Type
 RUN.                                                1:    Run Number
~OTHER INFORMATION BLOCK
 DIGITISED FROM HARDCOPY BY UKOGL
#
~A    DEPT             CALI              GR                RHOB              DRHO       
# ...
     495.2000        6.36451819      110.91936250        2.58513270        0.05820941 
     495.3000        6.36452985      107.89709544        2.58989148        0.06465433 
     495.4000        6.36454183      102.40187691        2.57223034        0.05980159 
     495.5000        6.36454183       96.39577458        2.55440946        0.05653879 
     495.6000        6.36454407       86.95005779        2.55308301        0.04479365 
     495.7000        6.36454304       79.96125019        2.53976504        0.04019511 
     495.8000        6.36453830       76.16803590        2.55109540        0.05844978 
     495.9000        6.36452441       72.14258226        2.54128538        0.05462587 
     496.0000        6.36434087       70.38394593        2.53052770        0.04681623 
     496.1000        6.35975163       71.29539278        2.51556845        0.04123141 
     496.2000        6.35550181       72.74109505        2.50751907        0.04720196 
     496.3000        6.35119963       74.45163188        2.49794031        0.05605887 
     496.4000        6.34698070       76.99733429        2.48328054        0.06316089 
     496.5000        6.33135611       83.75462195        2.47800432        0.06256556 
     496.6000        6.30351176       85.47557767        2.46438728        0.04736471 
     496.7000        6.26540988       83.16145474        2.45904771        0.05022197 
     496.8000        6.28739874       78.40827351        2.47819000        0.05771359 
     496.9000        6.28596561       75.48870874        2.47513933        0.05146965 
     497.0000        6.30158472       73.88543390        2.47973484        0.03435243 
     497.1000        6.30422372       75.08728617        2.45061224        0.03168925 
     497.2000        6.30454239       79.61743612        2.45614017        0.04555422 
     497.3000        6.30465068       86.32620073        2.46950622        0.04885625 
     497.4000        6.30476848       93.50697985        2.48727438        0.04753742 
     497.5000        6.30494697      103.26534758        2.51009512        0.05407812 
     497.6000        6.30534214      111.80648392        2.52975408        0.05991069 
     497.7000        6.30633587      119.93578473        2.54011199        0.05939673 
     497.8000        6.32874866      120.75323348        2.54815786        0.05980708 
     497.9000        6.36339398      117.46131679        2.56353793        0.07340770 
     498.0000        6.38197375      112.21569641        2.55171842        0.07677238 
     498.1000        6.40207596      105.27063739        2.53512000        0.04608280 
     498.2000        6.42366661      102.37110736        2.55581348        0.04924112 
     498.3000        6.44453852       97.92977755        2.56093131        0.05834036 
     498.4000        6.46533049       93.23309718        2.56579077        0.06568035 
     498.5000        6.42191456       89.82499917        2.54114199        0.04264053 
     498.6000        6.36640808       92.53656542        2.50889586        0.01646728 
     498.7000        6.37866125       96.93303867        2.49036940        0.00448191 
     498.8000        6.38988031      100.42608800        2.48520662        0.01648673 
     498.9000        6.40129001      100.00061001        2.52427146        0.04833084 
     499.0000        6.40614294      100.46775562        2.55366000        0.06013248 
     499.1000        6.36930527      104.60862994        2.55698781        0.07462154 
     499.2000        6.32731667      109.28642038        2.54509157        0.07874130 
     499.3000        6.32923444      113.43615258        2.52809086        0.05362973 
     499.4000        6.36402173      114.72357782        2.49031545        0.02969315 
     499.5000        6.38166509      108.87612506        2.49806167        0.04482290 
     499.6000        6.34689026      100.56385386        2.50164534        0.04907071 
     499.7000        6.34431702       94.41401883        2.50800301        0.05533089 
     499.8000        6.36271848       93.44186044        2.52233972        0.06755517 
     499.9000        6.39098147       95.31622148        2.53517219        0.07828536 
     500.0000        6.41922471       99.64871263        2.53592909        0.06929373 
     500.1000        6.44361794      104.10221500        2.53735876        0.06246142 
     500.2000        6.41424254      108.13658738        2.54334374        0.06641790 
     500.3000        6.38248745      108.06511969        2.55012233        0.05885636 
     500.4000        6.34427151      107.17779658        2.53238906        0.03221179 
     500.5000        6.36409341      110.08841485        2.51812021        0.03866007 
     500.6000        6.38332340      110.41123925        2.53995728        0.04773673 
     500.7000        6.38438365      107.84889425        2.55817879        0.05168102 
     500.8000        6.40066494      104.51411853        2.56087878        0.04651504 
     500.9000        6.40307246      100.80102525        2.54359232        0.05657050 
     501.0000        6.37122832       99.46981997        2.54905343        0.05603456 
     501.1000        6.36558095       98.06116339        2.51771533        0.04030055 
     501.2000        6.36198568       96.74367306        2.50541062        0.04305323 
     501.3000        6.35891670       95.34015594        2.50108834        0.06320584 
     501.4000        6.35600017       95.97072159        2.53081748        0.09545400 
     501.5000        6.35320913       97.90902831        2.55202020        0.10395895 
     501.6000        6.35045982       99.68926625        2.55892686        0.08531316 
     501.7000        6.34771260       99.67003662        2.54056334        0.07253370 
     501.8000        6.34496497       98.61029313        2.54330410        0.05941534 
     501.9000        6.34221734       97.42494907        2.53287487        0.03844402 
     502.0000        6.33946971       95.63226334        2.51299299        0.02583436 
     502.1000        6.33670052       92.25699858        2.52200881        0.03969612 
     502.2000        6.33387502       91.89035395        2.53645197        0.04628747 
     502.3000        6.33099892       92.83083902        2.52941311        0.04198674 
     502.4000        6.32811913       95.88844270        2.54115076        0.04224973 
     502.5000        6.32500348      101.40683173        2.54890464        0.06014986 
     502.6000        6.33685477      106.49864245        2.53684889        0.06269633 
     502.7000        6.38713025      109.77919413        2.53478723        0.06027111 
     502.8000        6.45679714      110.94763724        2.52790276        0.05650569 
     502.9000        6.48195582      109.66205851        2.52586585        0.04936921 
     503.0000        6.44485925      109.05229721        2.53957712        0.06463665 
     503.1000        6.32798241      105.68716807        2.54901660        0.09668965 
     503.2000        6.24337561       99.94549812        2.54090198        0.08424416 
     503.3000        6.26418396       98.13686640        2.51542437        0.05553173 
     503.4000        6.33212690       93.84002779        2.51016875        0.03597523 
     503.5000        6.36590879       89.65097988        2.53879255        0.05795929 
     503.6000        6.36756097       89.56726418        2.55394938        0.07126154 
     503.7000        6.36951315       95.33081186        2.54345358        0.06942236 
     503.8000        6.37140285      101.30978406        2.53889247        0.05564960 
     503.9000        6.37324104      108.57278342        2.54724157        0.06361407 
     504.0000        6.37511384      110.75211695        2.55868951        0.06939106 
     504.1000        6.37699556      110.44081523        2.55687535        0.06653492 
     504.2000        6.37900626      107.57336309        2.54189175        0.04549030 
     504.3000        6.38107860      102.72409949        2.51619776        0.02440445 
