~Version Information Block
 VERS.                2.00:     CWLS LOG ASCII STANDARD - VERSION 2.000000
 WRAP.                  NO:     One Line Per Depth Step
#
~Well Information Block
#MNEM.UNIT                     Data                         Information
#----------   ------------------------------------------   ----------------
 STRT.M                                        348.0000:     START DEPTH
 STOP.M                                        673.1000:     STOP DEPTH
 STEP.M                                          0.1000:     STEP LENGTH OR LOG DEPTH INCREMENT
 NULL.                                        -999.2500:     NO VALUE
 COMP.                                             OPAB:     COMPANY
 WELL.                                     GRÖTLINGBO-2:     WELL
 FLD.                                        GRÖTLINGBO:     FIELD
 LOC.                                                  :     FIELD LOCATION
 PROV.                                                 :     PROVINCE
 STAT.                                                 :     STATE
 CTRY.                                                 :     COUNTRY
 LCC.                                                  :     SERVICE COMPANY
 DATE.                                                 :     LOG DATE
 WN.                                       GRÖTLINGBO-2:     WELL_NAME
 UWI.                                                  :     UNIQUE WELL ID
 API.                                                  :     API NUMBER
#
~CURVE INFORMATION BLOCK
#MNEM.UNIT       API CODE      Curve Description
#----------    -------------   -------------------
 DEPT.M                                               :    1 DEPTH
 CALI.IN       70 280 01 01                           :    2 Caliper
 GR  .GAPI     35 310 01 01                           :    3 Gamma Ray
 RHOB.G/C3     42 350 01 01                           :    4 Bulk Density
 DRHO.G/C3                                            :    5 Delta Rho
~PARAMETER INFORMATION BLOCK
#MNEM.UNIT                               Value            Description
#----------                       --------------------    -------------------------------------------------
 FTYP.                                            CFDL:    Log File Type
 RUN.                                                1:    Run Number
~OTHER INFORMATION BLOCK
 DIGITISED FROM HARDCOPY BY UKOGL
#
~A    DEPT             CALI              GR                RHOB              DRHO       
# ...
     578.0000        6.42769395       87.43914587        2.56966257        0.11067939 
     578.1000        6.46807864       88.36564570        2.55315522        0.10995499 
     578.2000        6.49395259       90.30814391        2.54181365        0.10788945 
     578.3000        6.49463813       92.39116010        2.52698624        0.11056051 
     578.4000        6.38226959       94.88271895        2.52542755        0.08920688 
     578.5000        6.34507613       97.46877036        2.53228873        0.07476538 
     578.6000        6.34901220       99.05170158        2.54026932        0.06027517 
     578.7000        6.35480694       98.29077451        2.54151888        0.04560500 
     578.8000        6.36082957       97.67470956        2.53246559        0.04174692 
     578.9000        6.36922240       97.40525083        2.52448840        0.04324254 
     579.0000        6.38355591       97.51519272        2.51570549        0.04054832 
     579.1000        6.38372685       93.79802937        2.50798027        0.03734687 
     579.2000        6.36491725       91.02011676        2.51423979        0.04594154 
     579.3000        6.30654014       90.94866507        2.53583887        0.05279276 
     579.4000        6.26237315       90.96793425        2.52871833        0.03650851 
     579.5000        6.30764121       91.13047865        2.51456582        0.02019549 
     579.6000        6.40350950       94.59506574        2.51466137        0.02140180 
     579.7000        6.42376567       99.36174790        2.53775101        0.03001865 
     579.8000        6.42533160      103.70888708        2.55525327        0.03879078 
     579.9000        6.46550198      107.29317450        2.54912950        0.04248264 
     580.0000        6.56384587      107.72831490        2.55011851        0.04659053 
     580.1000        6.48490384      102.34841221        2.56372451        0.06159845 
     580.2000        6.42082937       98.37823744        2.58344769        0.07230589 
     580.3000        6.43053718       94.75590926        2.59091795        0.08433145 
     580.4000        6.36914308       87.79830954        2.61001166        0.09082103 
     580.5000        6.34264672       74.70229681        2.60984668        0.10029213 
     580.6000        6.34179514       59.96624305        2.59798778        0.10780672 
     580.7000        6.26768230       48.06482641        2.58381493        0.10816813 
     580.8000        6.18426995       39.72029762        2.56181123        0.10112375 
     580.9000        6.16222037       33.36567577        2.53787297        0.10039961 
     581.0000        6.14221856       32.17960614        2.51629320        0.09784159 
     581.1000        6.05180442       32.89708493        2.50098227        0.08536438 
     581.2000        6.01477307       34.22015983        2.46981676        0.05116034 
     581.3000        6.00964551       34.72811759        2.43433172        0.02270973 
     581.4000        6.03893098       34.89190772        2.42062003        0.02263727 
     581.5000        6.08001868       37.59906260        2.43866007        0.03338737 
     581.6000        6.12347358       40.86389261        2.45338441        0.04088404 
     581.7000        6.14627349       44.84903754        2.45483678        0.03967668 
     581.8000        6.14577457       47.49738022        2.44861780        0.04110035 
     581.9000        6.14579941       47.89523264        2.45703279        0.05673863 
     582.0000        6.14514454       48.17210044        2.47781570        0.06916640 
     582.1000        6.10613801       47.53099268        2.49128815        0.05496618 
     582.2000        6.11584384       45.17875202        2.47685582        0.03812610 
     582.3000        6.12423869       42.28502569        2.46721597        0.03120549 
     582.4000        6.13224097       40.43439886        2.46397329        0.04884513 
     582.5000        6.13979679       39.48893352        2.47229384        0.06766858 
     582.6000        6.11885272       38.65151792        2.46161315        0.05106022 
     582.7000        6.03916696       35.88380644        2.45212568        0.05049933 
     582.8000        6.00338449       33.85042981        2.44333577        0.04797122 
     582.9000        6.03542111       32.62065141        2.45833611        0.04697999 
     583.0000        6.06666806       32.27645204        2.47791328        0.05596617 
     583.1000        6.06594978       31.70395336        2.49490955        0.06115975 
     583.2000        6.06576966       31.96296690        2.49443163        0.06515053 
     583.3000        6.06550166       33.02611175        2.49239948        0.07614804 
     583.4000        6.06481887       33.27368972        2.49042712        0.07875106 
     583.5000        6.04589894       31.36270975        2.46959243        0.05445650 
     583.6000        6.02791305       30.65176592        2.45649074        0.06379994 
     583.7000        6.04956053       30.63273922        2.46162807        0.07591144 
     583.8000        6.07017122       30.61447475        2.46118606        0.06308382 
     583.9000        6.09095719       31.14734049        2.44735624        0.06793531 
     584.0000        6.11183296       32.00009355        2.44382182        0.06942140 
     584.1000        6.13279829       34.53164970        2.42091711        0.05321556 
     584.2000        6.15536820       35.16875334        2.41152873        0.05177145 
     584.3000        6.14670916       32.74079282        2.40860499        0.05799144 
     584.4000        6.10526188       30.44262965        2.42075415        0.07303893 
     584.5000        6.06875130       29.75690647        2.43840039        0.09338972 
     584.6000        6.04500788       30.53498394        2.44845551        0.10115079 
     584.7000        6.05670948       31.46405622        2.45876512        0.11802073 
     584.8000        6.06281321       31.91722365        2.47825683        0.14263697 
     584.9000        6.03334295       30.46109039        2.48093562        0.13690296 
     585.0000        6.00542762       28.98831267        2.46045367        0.11748072 
     585.1000        5.96520829       28.17531016        2.43887261        0.09962160 
     585.2000        5.94647013       28.60310808        2.43204256        0.08370964 
     585.3000        5.96274536       29.80933064        2.43459935        0.07428809 
     585.4000        5.99193337       30.67244356        2.44327879        0.07135719 
     585.5000        6.00589613       31.59108417        2.44427793        0.06688721 
     585.6000        6.00555805       35.43202225        2.43165172        0.05588542 
     585.7000        6.00468546       40.80537264        2.42125005        0.04248458 
     585.8000        6.06107922       45.16658465        2.43525482        0.05566837 
     585.9000        6.06494743       45.42720616        2.45456937        0.07187482 
     586.0000        6.04616234       43.31375229        2.46997901        0.07606214 
     586.1000        6.01946873       39.04187977        2.46471924        0.08100831 
     586.2000        5.98770254       36.58413849        2.46012283        0.08511884 
     586.3000        5.98671946       36.46740532        2.45051569        0.07528572 
     586.4000        6.00443337       35.20290825        2.45602427        0.07300446 
     586.5000        6.06458708       32.21874610        2.45570207        0.06236739 
     586.6000        6.10543045       28.72837249        2.44853587        0.06209101 
     586.7000        6.07884345       25.41785050        2.44998266        0.07662869 
     586.8000        6.05416266       23.64171873        2.47484677        0.09381909 
     586.9000        6.04616584       23.43295797        2.48063800        0.09465538 
     587.0000        6.04720351       24.13743183        2.49537711        0.09330338 
     587.1000        6.05108735       24.55242820        2.48855473        0.07969566 
