~Version Information Block
 VERS.                2.00:     CWLS LOG ASCII STANDARD - VERSION 2.000000
 WRAP.                  NO:     One Line Per Depth Step
#
~Well Information Block
#MNEM.UNIT                     Data                         Information
#----------   ------------------------------------------   ----------------
 STRT.M                                        348.0000:     START DEPTH
 STOP.M                                        673.1000:     STOP DEPTH
 STEP.M                                          0.1000:     STEP LENGTH OR LOG DEPTH INCREMENT
 NULL.                                        -999.2500:     NO VALUE
 COMP.                                             OPAB:     COMPANY
 WELL.                                     GRÖTLINGBO-2:     WELL
 FLD.                                        GRÖTLINGBO:     FIELD
 LOC.                                                  :     FIELD LOCATION
 PROV.                                                 :     PROVINCE
 STAT.                                                 :     STATE
 CTRY.                                                 :     COUNTRY
 LCC.                                                  :     SERVICE COMPANY
 DATE.                                                 :     LOG DATE
 WN.                                       GRÖTLINGBO-2:     WELL_NAME
 UWI.                                                  :     UNIQUE WELL ID
 API.                                                  :     API NUMBER
#
~CURVE INFORMATION BLOCK
#MNEM.UNIT       API CODE      Curve Description
#----------    -------------   -------------------
 DEPT.M                                               :    1 DEPTH
 CALI.IN       70 280 01 01                           :    2 Caliper
 GR  .GAPI     35 310 01 01                           :    3 Gamma Ray
 RHOB.G/C3     42 350 01 01                           :    4 Bulk Density
 DRHO.G/C3                                            :    5 Delta Rho
~PARAMETER INFORMATION BLOCK
#MNEM.UNIT                               Value            Description
#----------                       --------------------    -------------------------------------------------
 FTYP.                                            CFDL:    Log File Type
 RUN.                                                1:    Run Number
~OTHER INFORMATION BLOCK
 DIGITISED FROM HARDCOPY BY UKOGL
#
~A    DEPT             CALI              GR                RHOB              DRHO       
# ...
     532.0000        6.36506172      103.10960671        2.53372969        0.04701088 
     532.1000        6.36488072      101.41433870        2.52882423        0.03431346 
     532.2000        6.36488611       99.98466885        2.53359997        0.03183879 
     532.3000        6.36502480       98.69887349        2.54326907        0.04825146 
     532.4000        6.36588740       98.92453878        2.54905357        0.06060469 
     532.5000        6.32871447       98.68534215        2.54799659        0.06861737 
     532.6000        6.26771213       99.13458728        2.54358617        0.06850100 
     532.7000        6.27444773      100.45312457        2.55233567        0.05829042 
     532.8000        6.34817353      101.70527440        2.57433225        0.07024969 
     532.9000        6.34569608       99.43743009        2.55113764        0.05214161 
     533.0000        6.34507687       96.89551967        2.54796339        0.04001047 
     533.1000        6.34484118       94.51681445        2.55035263        0.03747436 
     533.2000        6.34473061       93.57615515        2.56396007        0.04024229 
     533.3000        6.34462151       96.05626378        2.58678165        0.04713002 
     533.4000        6.34462151       99.58516100        2.60448360        0.06599594 
     533.5000        6.34462151      102.40616657        2.61722853        0.08759248 
     533.6000        6.34462151      102.94873786        2.58957398        0.07677962 
     533.7000        6.34462151      103.58940719        2.58579391        0.07280896 
     533.8000        6.34462151      103.66034174        2.57713982        0.07864417 
     533.9000        6.34462151      103.39608720        2.56562777        0.05643719 
     534.0000        6.34464001      104.58320727        2.55495862        0.04859664 
     534.1000        6.34469542      107.29490682        2.54402823        0.04208841 
     534.2000        6.34476084      109.47310248        2.53156165        0.04099954 
     534.3000        6.34501129      108.50796205        2.52802713        0.04882623 
     534.4000        6.34584352      104.48120422        2.54968601        0.06726167 
     534.5000        6.33468236      100.81976705        2.56485019        0.07986324 
     534.6000        6.30339036      100.13976101        2.54725390        0.05628893 
     534.7000        6.32396492      102.16314023        2.52030881        0.03380065 
     534.8000        6.34718798      106.86803526        2.51909506        0.03322088 
     534.9000        6.35273633      112.03060610        2.54388737        0.05377004 
     535.0000        6.35775662      115.05503523        2.56977312        0.06253992 
     535.1000        6.36268725      113.03089318        2.58462466        0.07495226 
     535.2000        6.36468490      111.08634669        2.59923374        0.09037561 
     535.3000        6.33875035      109.42817791        2.60826200        0.09895635 
     535.4000        6.30937202      107.83348268        2.60537971        0.09697046 
     535.5000        6.31948648      106.36585334        2.56501224        0.06266106 
     535.6000        6.39018948      104.92817788        2.53489766        0.03094507 
     535.7000        6.38057144      104.21235008        2.52568654        0.03435255 
     535.8000        6.28901836      104.49600458        2.52275265        0.04605681 
     535.9000        6.28568051      106.41410159        2.52740434        0.04206710 
     536.0000        6.29250838      109.67927262        2.53162000        0.03529293 
     536.1000        6.31382626      114.66504365        2.53659481        0.03253922 
     536.2000        6.33480534      119.50084897        2.53415579        0.02365107 
     536.3000        6.35533662      121.30854625        2.52741660        0.01488152 
     536.4000        6.41434460      120.85273706        2.53164509        0.01316127 
     536.5000        6.49404072      120.60739041        2.54474578        0.01625658 
     536.6000        6.57981425      119.79910509        2.55171610        0.02804447 
     536.7000        6.60678007      116.02765785        2.55904815        0.03407984 
     536.8000        6.62490083      107.75818355        2.54056392        0.02862736 
     536.9000        6.62653668       99.75681388        2.52771119        0.02346738 
     537.0000        6.61833017       91.71122813        2.51919758        0.02420301 
     537.1000        6.66526522       83.12494027        2.49939541        0.02407872 
     537.2000        6.68207242       73.73813848        2.49060025        0.04071129 
     537.3000        6.66478951       69.01838866        2.52563097        0.06042988 
     537.4000        6.62334223       67.18866926        2.53877937        0.08196999 
     537.5000        6.58704923       66.36566655        2.52547029        0.07690227 
     537.6000        6.56344010       64.79214774        2.51773721        0.06479127 
     537.7000        6.56427777       64.52278930        2.53499149        0.06489133 
     537.8000        6.56579569       65.18716677        2.53268079        0.06075553 
     537.9000        6.52514857       66.15935646        2.53394708        0.06208147 
     538.0000        6.41464801       66.22215799        2.52463353        0.05721724 
     538.1000        6.32131167       67.08191289        2.51173644        0.05222240 
     538.2000        6.32360364       68.38857820        2.49935929        0.04253702 
     538.3000        6.32413082       70.97718300        2.49431203        0.03350536 
     538.4000        6.32438397       72.33880371        2.49397149        0.02912946 
     538.5000        6.32456688       72.78589006        2.49541777        0.02854618 
     538.6000        6.32470120       72.47961351        2.48765452        0.04587202 
     538.7000        6.32470120       72.74502809        2.52397027        0.06786853 
     538.8000        6.32470120       72.59131436        2.54018771        0.07062667 
     538.9000        6.32470120       71.49881698        2.55133738        0.06968084 
     539.0000        6.32470120       70.31308237        2.55725475        0.05979133 
     539.1000        6.32470120       68.32745641        2.54042033        0.04866412 
     539.2000        6.32470120       66.43841172        2.53968641        0.04916564 
     539.3000        6.32470120       65.64423390        2.55374825        0.06068486 
     539.4000        6.32470120       65.86408854        2.54139129        0.05460681 
     539.5000        6.32470120       66.42612010        2.54040504        0.05658023 
     539.6000        6.32470120       67.03920893        2.52902321        0.05759290 
     539.7000        6.32471195       69.18748943        2.51879758        0.05308799 
     539.8000        6.32467460       71.81368121        2.52359388        0.05418643 
     539.9000        6.32463401       72.96073924        2.53053140        0.06958236 
     540.0000        6.32459809       72.35772002        2.53609267        0.07783554 
     540.1000        6.32394821       70.14959420        2.52893100        0.07376157 
     540.2000        6.30603298       68.86232060        2.52888616        0.06947712 
     540.3000        6.32214056       69.60880460        2.51028645        0.04746714 
     540.4000        6.34317599       70.21586535        2.49664618        0.03328803 
     540.5000        6.34426578       70.81367437        2.49972691        0.03321981 
     540.6000        6.34448030       69.93848423        2.50537700        0.03492413 
     540.7000        6.34459765       66.34618426        2.49835082        0.02768527 
     540.8000        6.34463227       64.16118737        2.50697640        0.03341730 
     540.9000        6.34462151       61.78054479        2.52069232        0.04173695 
     541.0000        6.34462151       60.12754540        2.52677866        0.04291480 
     541.1000        6.34462151       59.01723620        2.52864896        0.05088731 
